lat,lon,name,admin1,admin2,cc,coord_tuple
25.0657,55.17128,Dubai,Dubai,,AE,"('25.1964944', '55.2783687')"
26.21536,50.5832,Manama,Manama,,BH,"('26.214221', '50.610556')"
13.69347,100.5022,Bang Kho Laem,Bangkok,,TH,"('13.7049795', '100.49156')"
25.0657,55.17128,Dubai,Dubai,,AE,"('25.04168', '55.1184893')"
18.5635,73.85205,Khadki,Maharashtra,Pune Division,IN,"('18.5494858', '73.9008672')"
43.75547,15.74444,Tribunj,Sibensko-Kniniska,,HR,"('43.6886934', '15.7073318')"
31.5084,31.84106,`Izbat al Burj,Muhafazat ad Daqahliyah,,EG,"('31.5129546', '31.8351656')"
41.20972,69.33417,Bektemir,Toshkent Shahri,,UZ,"('41.2942588', '69.3216088')"
10.10468,76.3565,Aluva,Kerala,Ernakulam,IN,"('10.1083876', '76.3692284')"
25.33737,55.41206,Sharjah,Ash Shariqah,,AE,"('25.2735226', '55.3318901')"
57.87096,11.98054,Kungalv,Vaestra Goetaland,Kungalvs Kommun,SE,"('57.8581787', '11.9173927')"
24.46667,54.36667,Abu Dhabi,Abu Dhabi,,AE,"('24.4888331', '54.3627764')"
25.0657,55.17128,Dubai,Dubai,,AE,"('25.1181005', '55.2005963')"
12.91723,74.85603,Mangalore,Karnataka,Dakshina Kannada,IN,"('12.87354', '74.851636')"
22.29941,73.20812,Vadodara,Gujarat,Vadodara,IN,"('22.3001401', '73.2106906')"
41.20972,69.33417,Bektemir,Toshkent Shahri,,UZ,"('41.2587333', '69.3539583')"
21.45388,91.96765,Cox's Bazar,Chittagong,,BD,"('21.3548905', '92.0262553')"
52.69917,6.75556,Dalen,Drenthe,Gemeente Coevorden,NL,"('52.7542736', '6.7181913')"
35.19278,128.08472,Chinju,Gyeongsangnam-do,,KR,"('35.5339103', '128.0388403')"
17.38405,78.45636,Hyderabad,Telangana,Hyderabad,IN,"('17.3407229', '78.3731573')"
25.0657,55.17128,Dubai,Dubai,,AE,"('25.0809849', '55.1371904')"
36.74231,-5.16709,Ronda,Andalusia,Provincia de Malaga,ES,"('36.741563', '-5.165679')"
25.33737,55.41206,Sharjah,Ash Shariqah,,AE,"('25.342399', '55.398785')"
10.06667,76.28333,Elur,Kerala,Ernakulam,IN,"('10.0301616', '76.3049154')"
24.68773,46.72185,Riyadh,Ar Riyad,,SA,"('24.7035593', '46.6914409')"
25.0657,55.17128,Dubai,Dubai,,AE,"('25.2016428', '55.2452567')"
35.4846,51.0829,Robat Karim,Tehran,,IR,"('35.3610285', '51.2056553')"
45.64861,25.60613,Brasov,Brasov,,RO,"('45.636403', '25.5647822')"
24.46667,54.36667,Abu Dhabi,Abu Dhabi,,AE,"('24.4207705', '54.4408399')"
51.89636,17.78549,Pleszew,Greater Poland Voivodeship,Powiat pleszewski,PL,"('51.8963456', '17.7860715')"
24.46667,54.36667,Abu Dhabi,Abu Dhabi,,AE,"('24.4115722', '54.4851993')"
40.78343,-73.96625,Manhattan,New York,New York County,US,"('40.7625468', '-73.9767102')"
28.58,77.33,Noida,Uttar Pradesh,Gautam Buddha Nagar,IN,"('28.660276', '77.3171794')"
21.54238,39.19797,Jeddah,Makkah,,SA,"('21.5653115', '39.1683492')"
25.04776,121.53185,Taipei,Taipei,,TW,"('25.0424446', '121.5526765')"
13.759,100.53358,Ratchathewi,Bangkok,,TH,"('13.7500074', '100.5398766')"
31.56044,-91.40317,Natchez,Mississippi,Adams County,US,"('31.5592551', '-91.4117106')"
25.0657,55.17128,Dubai,Dubai,,AE,"('25.0913756', '55.138214')"
18.59921,73.92701,Lohogaon,Maharashtra,Pune Division,IN,"('18.5615993', '73.9077449')"
38.56667,-7.9,Evora,Evora,Evora,PT,"('38.5713932', '-7.9080339')"
10.51667,76.21667,Trichur,Kerala,Thrissur District,IN,"('10.5229029', '76.2248516')"
25.0657,55.17128,Dubai,Dubai,,AE,"('25.0973763', '55.1636826')"
38.71667,-9.13333,Lisbon,Lisbon,Lisbon,PT,"('38.7202597', '-9.1358652')"
25.78953,55.9432,Ras al-Khaimah,Ra's al Khaymah,,AE,"('25.781661', '55.9843805')"
43.95745,2.2113,Arthes,Midi-Pyrenees,Departement du Tarn,FR,"('43.9478735', '2.197414')"
35.22806,128.68111,Changwon,Gyeongsangnam-do,,KR,"('35.223931', '128.6847046')"
24.68773,46.72185,Riyadh,Ar Riyad,,SA,"('24.7600032', '46.7181985')"
50.11552,8.68417,Frankfurt am Main,Hesse,Regierungsbezirk Darmstadt,DE,"('50.117282', '8.680175')"
40.76955,-74.02042,Weehawken,New Jersey,Hudson County,US,"('40.759683', '-74.003938')"
24.68773,46.72185,Riyadh,Ar Riyad,,SA,"('24.7108766', '46.6935511')"
13.759,100.53358,Ratchathewi,Bangkok,,TH,"('13.7437483', '100.5465903')"
51.51116,-0.18426,Bayswater,England,Greater London,GB,"('51.519234', '-0.1718773')"
35.23417,128.88111,Kimhae,Gyeongsangnam-do,,KR,"('35.2347664', '128.866354')"
51.50901,-0.2762,Acton,England,Greater London,GB,"('51.4893163', '-0.2599652')"
25.0657,55.17128,Dubai,Dubai,,AE,"('25.2079892', '55.2714443')"
51.1,6.5,Juchen,North Rhine-Westphalia,Regierungsbezirk Dusseldorf,DE,"('51.1056435', '6.4195224')"
-25.42778,-49.27306,Curitiba,Parana,Curitiba,BR,"('-25.4273444', '-49.2546075')"
29.33278,48.02861,Hawalli,Muhafazat Hawalli,,KW,"('29.333298', '48.0157213')"
25.0657,55.17128,Dubai,Dubai,,AE,"('25.147242', '55.235111')"
50.89028,21.51426,Cmielow,Swietokrzyskie,Powiat ostrowiecki,PL,"('50.886216', '21.53287')"
25.11641,56.34141,Al Fujayrah,Al Fujayrah,,AE,"('25.1214085', '56.3326015')"
25.0657,55.17128,Dubai,Dubai,,AE,"('25.1055872', '55.1497874')"
25.0657,55.17128,Dubai,Dubai,,AE,"('25.0323433', '55.1054193')"
50.45466,30.5238,Kiev,Kyiv City,,UA,"('50.450436', '30.5210489')"
19.1164,72.90471,Powai,Maharashtra,Mumbai Suburban,IN,"('19.1394166', '72.8333648')"
24.74333,56.46583,Shinas,Al Batinah,,OM,"('24.8065109', '56.2011761')"
26.27944,50.20833,Khobar,Eastern Province,,SA,"('26.2297923', '50.2056091')"
33.6007,73.0679,Rawalpindi,Punjab,,PK,"('33.6514483', '73.0758961')"
29.29583,48.07861,Salwa,Muhafazat Hawalli,,KW,"('29.2996661', '48.0690033')"
-33.91799,25.57007,Port Elizabeth,Eastern Cape,Nelson Mandela Bay Metropolitan Municipality,ZA,"('-33.9750594', '25.6121329')"
25.33737,55.41206,Sharjah,Ash Shariqah,,AE,"('25.2948131', '55.3656971')"
25.0657,55.17128,Dubai,Dubai,,AE,"('25.100701', '55.169226')"
29.6005,-98.48724,Hollywood Park,Texas,Bexar County,US,"('29.6033834', '-98.4182524')"
21.42664,39.82563,Mecca,Makkah,,SA,"('21.501593', '39.7912547')"
25.0657,55.17128,Dubai,Dubai,,AE,"('25.2024166', '55.2612268')"
27.3636,75.56838,Ringas,Rajasthan,Sikar,IN,"('27.1779906', '75.7190569')"
46.25917,5.65727,Oyonnax,Rhone-Alpes,Departement de l'Ain,FR,"('46.2612638', '5.6479705')"
35.6895,139.69171,Tokyo,Tokyo,,JP,"('35.6585805', '139.7454329')"
25.33737,55.41206,Sharjah,Ash Shariqah,,AE,"('25.162352', '55.4201')"
25.33737,55.41206,Sharjah,Ash Shariqah,,AE,"('25.216334', '55.407787')"
34.01418,75.31899,Pahalgam,Kashmir,Anantnag,IN,"('34.0155915', '75.3271365')"
44.43225,26.10626,Bucharest,Bucuresti,Municipiul Bucuresti,RO,"('44.4597115', '26.1267142')"
8.35122,-62.64102,Ciudad Guayana,Bolivar,Municipio Caroni,VE,"('8.2932027', '-62.7286649')"
25.78953,55.9432,Ras al-Khaimah,Ra's al Khaymah,,AE,"('25.6826937', '55.7463448')"
25.0657,55.17128,Dubai,Dubai,,AE,"('25.11724', '55.2071653')"
21.54238,39.19797,Jeddah,Makkah,,SA,"('21.5679', '39.1785632')"
51.17622,-115.56982,Banff,Alberta,,CA,"('51.1782696', '-115.5712216')"
18.75275,73.40575,Lonavla,Maharashtra,Pune Division,IN,"('18.7561654', '73.3858418')"
52.51868,-1.9945,West Bromwich,England,Sandwell,GB,"('52.543565', '-1.958764')"
46.55472,15.64667,Maribor,Maribor,,SI,"('46.5567354', '15.6444947')"
27.49658,77.46263,Govardhan,Uttar Pradesh,Mathura,IN,"('27.4980425', '77.4635643')"
25.33737,55.41206,Sharjah,Ash Shariqah,,AE,"('25.2533852', '55.4144904')"
43.38871,-1.66267,Saint-Jean-de-Luz,Aquitaine,Departement des Pyrenees-Atlantiques,FR,"('43.3882511', '-1.6626711')"
37.97945,23.71622,Athens,Attica,Nomarchia Athinas,GR,"('37.9765984', '23.7275394')"
19.1164,72.90471,Powai,Maharashtra,Mumbai Suburban,IN,"('19.140512', '72.842156')"
40.4165,-3.70256,Madrid,Madrid,Provincia de Madrid,ES,"('40.4143821', '-3.6974563')"
25.11641,56.34141,Al Fujayrah,Al Fujayrah,,AE,"('25.1230086', '56.331096')"
24.1469,120.6839,Taichung,Taiwan,Taichung City,TW,"('24.1480649', '120.6464319')"
53.79391,-1.75206,Bradford,England,Bradford,GB,"('53.7829385', '-1.7814997')"
25.0657,55.17128,Dubai,Dubai,,AE,"('25.0714773', '55.1287892')"
24.46667,54.36667,Abu Dhabi,Abu Dhabi,,AE,"('24.3849223', '54.5229669')"
25.0657,55.17128,Dubai,Dubai,,AE,"('25.2105228', '55.2730557')"
51.09793,2.59368,De Panne,Flanders,Provincie West-Vlaanderen,BE,"('51.100954', '2.584202')"
32.02581,35.86458,Al Jubayhah,Amman,,JO,"('32.0027852', '35.8308624')"
25.0657,55.17128,Dubai,Dubai,,AE,"('25.0462905', '55.1210322')"
46.88333,-0.9,Les Epesses,Pays de la Loire,Departement de la Vendee,FR,"('46.8882129', '-0.9233038')"
50.96775,7.98848,Kreuztal,North Rhine-Westphalia,,DE,"('50.9479062', '7.997966')"
48.90018,2.30952,Clichy,Ile-de-France,Departement des Hauts-de-Seine,FR,"('48.8712142', '2.3102305')"
33.9,35.48333,Ra's Bayrut,Beyrouth,,LB,"('33.8924351', '35.471484')"
24.68773,46.72185,Riyadh,Ar Riyad,,SA,"('24.780719', '46.7493773')"
28.3998,36.57151,Tabuk,Mintaqat Tabuk,,SA,"('28.3681676', '36.5643306')"
25.0657,55.17128,Dubai,Dubai,,AE,"('25.019025', '55.260483')"
25.33737,55.41206,Sharjah,Ash Shariqah,,AE,"('25.2579618', '55.3216818')"
25.41694,51.40389,Umm Salal Muhammad,Baladiyat Umm Salal,,QA,"('25.4182902', '51.410211')"
53.6832,27.138,Dzyarzhynsk,Minsk,,BY,"('53.662496', '27.1398997')"
25.0657,55.17128,Dubai,Dubai,,AE,"('25.2275912', '55.2566424')"
41.38896,2.16179,Eixample,Catalonia,Provincia de Barcelona,ES,"('41.3871881', '2.1675991')"
25.0657,55.17128,Dubai,Dubai,,AE,"('25.2049349', '55.264236')"
18.21639,42.50528,Abha,Mintaqat `Asir,,SA,"('18.2397162', '42.6046425')"
25.0657,55.17128,Dubai,Dubai,,AE,"('24.9801793', '55.0924069')"
17.44781,78.52633,Malkajgiri,Telangana,Hyderabad,IN,"('17.4398114', '78.4842511')"
55.67938,12.53463,Frederiksberg,Capital Region,Frederiksberg Kommune,DK,"('55.6868312', '12.5506561')"
38.76771,-9.19935,Pontinha,Lisbon,Odivelas,PT,"('38.7479707', '-9.1773199')"
45.83111,16.11639,Sesvete,Grad Zagreb,Sesvete,HR,"('45.7932021', '16.1519234')"
25.0657,55.17128,Dubai,Dubai,,AE,"('25.0650315', '55.2067816')"
24.80361,120.96861,Hsinchu,Taiwan,Hsinchu,TW,"('24.807457', '120.963586')"
31.21564,29.95527,Alexandria,Alexandria,,EG,"('31.235185', '29.9488414')"
25.0657,55.17128,Dubai,Dubai,,AE,"('25.103367', '55.205139')"
30.06263,31.24967,Cairo,Muhafazat al Qahirah,,EG,"('30.0166539', '31.4119248')"
24.46667,54.36667,Abu Dhabi,Abu Dhabi,,AE,"('24.4728198', '54.3783496')"
19.23496,72.85976,Borivli,Maharashtra,Mumbai Suburban,IN,"('19.1592377', '72.833789')"
-26.20227,28.04363,Johannesburg,Gauteng,City of Johannesburg Metropolitan Municipality,ZA,"('-26.1448665', '28.0422716')"
25.0657,55.17128,Dubai,Dubai,,AE,"('25.042649', '55.1593142')"
25.33737,55.41206,Sharjah,Ash Shariqah,,AE,"('25.2647986', '55.3269572')"
25.9726,-81.72898,Marco,Florida,Collier County,US,"('25.8665922', '-81.3849092')"
40.71871,-74.56932,Bernardsville,New Jersey,Somerset County,US,"('40.7190824', '-74.5606999')"
50.11552,8.68417,Frankfurt am Main,Hesse,Regierungsbezirk Darmstadt,DE,"('50.1074624', '8.6688547')"
25.0657,55.17128,Dubai,Dubai,,AE,"('25.187364', '55.261237')"
52.07667,4.29861,The Hague,South Holland,Gemeente Den Haag,NL,"('52.0782928', '4.3126451')"
30.06263,31.24967,Cairo,Muhafazat al Qahirah,,EG,"('30.0622278', '31.216315')"
44.39603,7.81764,Mondovi,Piedmont,Provincia di Cuneo,IT,"('44.3909071', '7.8220298')"
25.33737,55.41206,Sharjah,Ash Shariqah,,AE,"('25.3617643', '55.3904177')"
51.89636,17.78549,Pleszew,Greater Poland Voivodeship,Powiat pleszewski,PL,"('51.8970468', '17.78582')"
24.46667,54.36667,Abu Dhabi,Abu Dhabi,,AE,"('24.489549', '54.356337')"
38.6979,-9.42146,Cascais,Lisbon,Cascais,PT,"('38.695329', '-9.456778')"
1.28967,103.85007,Singapore,,,SG,"('1.2816722', '103.8438866')"
25.33737,55.41206,Sharjah,Ash Shariqah,,AE,"('25.2553088', '55.3377485')"
-23.5475,-46.63611,Sao Paulo,Sao Paulo,Sao Paulo,BR,"('-23.5541545', '-46.7101583')"
24.68773,46.72185,Riyadh,Ar Riyad,,SA,"('24.688864', '46.673841')"
24.46667,54.36667,Abu Dhabi,Abu Dhabi,,AE,"('24.4647807', '54.3751714')"
23.34777,85.33856,Ranchi,Jharkhand,Ranchi,IN,"('23.3594172', '85.3251162')"
25.0657,55.17128,Dubai,Dubai,,AE,"('25.1958808', '55.2781619')"
25.0657,55.17128,Dubai,Dubai,,AE,"('25.1515312', '55.1970825')"
51.72312,-0.5367,Bovingdon,England,Hertfordshire,GB,"('51.723064', '-0.544876')"
25.33737,55.41206,Sharjah,Ash Shariqah,,AE,"('25.2663551', '55.3138307')"
25.0657,55.17128,Dubai,Dubai,,AE,"('25.0760669', '55.1407872')"
25.0657,55.17128,Dubai,Dubai,,AE,"('25.0806933', '55.1370583')"
25.33737,55.41206,Sharjah,Ash Shariqah,,AE,"('25.2818648', '55.397894')"
25.0657,55.17128,Dubai,Dubai,,AE,"('25.1340842', '55.1849625')"
25.0657,55.17128,Dubai,Dubai,,AE,"('25.038864', '55.127968')"
49.15652,23.87232,Morshyn,Lviv,,UA,"('49.1506969', '23.8677409')"
39.78199,-86.05026,Warren Park,Indiana,Marion County,US,"('39.7974858', '-86.0410063')"
13.0926,80.2801,George Town,Tamil Nadu,Chennai,IN,"('13.0947525', '80.2909666')"
24.68773,46.72185,Riyadh,Ar Riyad,,SA,"('24.7087508', '46.6889128')"
33.53115,-111.94265,Paradise Valley,Arizona,Maricopa County,US,"('33.479764', '-111.99781')"
25.0657,55.17128,Dubai,Dubai,,AE,"('25.0928942', '55.2357542')"
23.55563,58.3989,Bawshar,Muhafazat Masqat,,OM,"('23.5959884', '58.402441')"
38.77929,-9.10222,Moscavide,Lisbon,Loures,PT,"('38.7642281', '-9.0955914')"
8.88113,76.58469,Kollam,Kerala,Kollam,IN,"('8.9267924', '76.7035228')"
40.78343,-73.96625,Manhattan,New York,New York County,US,"('40.7616209', '-73.9788477')"
21.54238,39.19797,Jeddah,Makkah,,SA,"('21.6624207', '39.1226041')"
32.71502,-17.14974,Arco da Calheta,Madeira,Calheta,PT,"('32.7614711', '-17.1346439')"
24.9056,67.0822,Karachi,Sindh,Karachi District,PK,"('24.8699122', '67.0628371')"
25.0657,55.17128,Dubai,Dubai,,AE,"('25.07643', '55.140504')"
25.0657,55.17128,Dubai,Dubai,,AE,"('25.0425035', '55.2512047')"
25.0657,55.17128,Dubai,Dubai,,AE,"('25.1537191', '55.243847')"
52.24424,21.08545,Praga Poludnie,Masovian Voivodeship,Warszawa,PL,"('52.2498187', '21.0889753')"
52.5,-1.91667,Hockley,England,City and Borough of Birmingham,GB,"('52.471513', '-1.941565')"
25.27932,51.52245,Doha,Baladiyat ad Dawhah,,QA,"('25.2225764', '51.4888949')"
9.68428,76.35337,Shertallai,Kerala,Alappuzha,IN,"('9.6680777', '76.339113')"
25.78953,55.9432,Ras al-Khaimah,Ra's al Khaymah,,AE,"('25.6972159', '55.7798339')"
53.79391,-1.75206,Bradford,England,Bradford,GB,"('53.7904724', '-1.7738842')"
25.11641,56.34141,Al Fujayrah,Al Fujayrah,,AE,"('25.1225966', '56.3248248')"
12.97194,77.59369,Bangalore,Karnataka,Bangalore Urban,IN,"('12.8249236', '77.5981383')"
51.36081,7.47168,Hagen,North Rhine-Westphalia,Regierungsbezirk Arnsberg,DE,"('51.3858715', '7.5222689')"
37.77493,-122.41942,San Francisco,California,San Francisco County,US,"('37.7923897', '-122.4104443')"
43.77925,11.24626,Florence,Tuscany,Province of Florence,IT,"('43.7715931', '11.2531986')"
25.78953,55.9432,Ras al-Khaimah,Ra's al Khaymah,,AE,"('25.7976985', '55.9727347')"
12.56458,75.39085,Sulya,Karnataka,Dakshina Kannada,IN,"('12.6608474', '75.6083608')"
27.21943,78.02832,Dayal Bagh,Uttar Pradesh,Agra,IN,"('27.2034977', '78.0393949')"
10.51667,76.21667,Trichur,Kerala,Thrissur District,IN,"('10.5203917', '76.2054853')"
21.54238,39.19797,Jeddah,Makkah,,SA,"('21.5691903', '39.1811822')"
24.25088,55.79312,Al Buraymi,Al Buraimi,,OM,"('24.2217416', '55.7817144')"
55.61252,37.72639,Orekhovo-Borisovo,Moscow,,RU,"('55.6115556', '37.719685')"
24.68773,46.72185,Riyadh,Ar Riyad,,SA,"('24.7717872', '46.6688888')"
-25.93312,28.01213,Diepsloot,Gauteng,City of Johannesburg Metropolitan Municipality,ZA,"('-26.042904', '28.014356')"
25.0657,55.17128,Dubai,Dubai,,AE,"('25.0520919', '55.1597944')"
11.24802,75.7804,Kozhikode,Kerala,Kozhikode,IN,"('11.2539225', '75.7726997')"
35.8044,51.4256,Tajrish,Tehran,,IR,"('35.7921326', '51.404317')"
53.90553,-1.69383,Otley,England,City and Borough of Leeds,GB,"('53.8906243', '-1.6789421')"
37.77493,-122.41942,San Francisco,California,San Francisco County,US,"('37.8085222', '-122.4402306')"
36.72016,-4.42034,Malaga,Andalusia,Provincia de Malaga,ES,"('36.7101604', '-4.4566644')"
25.0657,55.17128,Dubai,Dubai,,AE,"('25.1981261', '55.2779668')"
25.0657,55.17128,Dubai,Dubai,,AE,"('24.8469261', '55.0261379')"
35.23417,128.88111,Kimhae,Gyeongsangnam-do,,KR,"('35.2580135', '128.8671727')"
25.0657,55.17128,Dubai,Dubai,,AE,"('25.0670141', '55.1411845')"
25.33737,55.41206,Sharjah,Ash Shariqah,,AE,"('25.162753', '55.414291')"
24.19167,55.76056,Al Ain,Abu Dhabi,,AE,"('24.2363041', '55.7245706')"
25.0657,55.17128,Dubai,Dubai,,AE,"('25.0839306', '55.1450352')"
37.82437,-122.23163,Piedmont,California,Alameda County,US,"('37.8436631', '-122.2514825')"
24.46667,54.36667,Abu Dhabi,Abu Dhabi,,AE,"('24.4257063', '54.5892211')"
25.0657,55.17128,Dubai,Dubai,,AE,"('25.2024066', '55.2775735')"
45.58528,9.99381,Villa Pedergnano,Lombardy,Provincia di Brescia,IT,"('45.5804172', '9.9987143')"
38.83388,-104.82136,Colorado Springs,Colorado,El Paso County,US,"('38.7911232', '-104.8501621')"
8.4855,76.94924,Thiruvananthapuram,Kerala,Thiruvananthapuram,IN,"('8.5558061', '76.8767647')"
23.34777,85.33856,Ranchi,Jharkhand,Ranchi,IN,"('23.351385', '85.318076')"
36.1125,129.35222,Heung-hai,Gyeongsangbuk-do,,KR,"('36.3594512', '129.3897364')"
25.0657,55.17128,Dubai,Dubai,,AE,"('25.1943215', '55.2351924')"
25.0657,55.17128,Dubai,Dubai,,AE,"('25.0715907', '55.1335854')"
24.9056,67.0822,Karachi,Sindh,Karachi District,PK,"('24.80813', '67.0615447')"
25.0657,55.17128,Dubai,Dubai,,AE,"('25.1693555', '55.2128055')"
24.46667,54.36667,Abu Dhabi,Abu Dhabi,,AE,"('24.5009249', '54.3742743')"
51.9,-2.08333,Cheltenham,England,Gloucestershire,GB,"('51.9007781', '-2.0778911')"
21.54238,39.19797,Jeddah,Makkah,,SA,"('21.5847451', '39.1305354')"
25.33737,55.41206,Sharjah,Ash Shariqah,,AE,"('25.281817', '55.315127')"
25.0657,55.17128,Dubai,Dubai,,AE,"('25.1835598', '55.2260328')"
43.9298,2.148,Albi,Midi-Pyrenees,Departement du Tarn,FR,"('43.9518735', '2.1559187')"
25.0657,55.17128,Dubai,Dubai,,AE,"('25.094848', '55.170447')"
21.54238,39.19797,Jeddah,Makkah,,SA,"('21.4942565', '39.2188669')"
25.0657,55.17128,Dubai,Dubai,,AE,"('25.092996', '55.148761')"
18.3,42.73333,Khamis Mushait,Mintaqat `Asir,,SA,"('18.3136429', '42.6990911')"
-12.97111,-38.51083,Salvador,Bahia,Salvador,BR,"('-12.989497', '-38.491192')"
25.33737,55.41206,Sharjah,Ash Shariqah,,AE,"('25.2245194', '55.3579653')"
45.85233,6.61286,Megeve,Rhone-Alpes,Departement de la Haute-Savoie,FR,"('45.860923', '6.618246')"
43.12277,6.00745,La Garde,Provence-Alpes-Cote d'Azur,Departement du Var,FR,"('43.1399615', '6.003848')"
21.54238,39.19797,Jeddah,Makkah,,SA,"('21.4727804', '39.239527')"
31.54972,74.34361,Lahore,Punjab,,PK,"('31.522206', '74.267503')"
24.9056,67.0822,Karachi,Sindh,Karachi District,PK,"('24.8051253', '67.0264848')"
51.21989,4.40346,Antwerpen,Flanders,Provincie Antwerpen,BE,"('51.2114281', '4.408803')"
25.33737,55.41206,Sharjah,Ash Shariqah,,AE,"('25.3138097', '55.4503118')"
53.557,9.964,St. Pauli,Hamburg,,DE,"('53.5672245', '9.9689818')"
25.33737,55.41206,Sharjah,Ash Shariqah,,AE,"('25.2726354', '55.3038264')"
25.33737,55.41206,Sharjah,Ash Shariqah,,AE,"('25.3330339', '55.4014596')"
45.88964,6.04235,Chavanod,Rhone-Alpes,Departement de la Haute-Savoie,FR,"('45.896833', '6.044165')"
25.33737,55.41206,Sharjah,Ash Shariqah,,AE,"('25.2664841', '55.3230252')"
39.09973,-94.57857,Kansas City,Missouri,Jackson County,US,"('39.0833547', '-94.5828389')"
52.48142,-1.89983,Birmingham,England,City and Borough of Birmingham,GB,"('52.4527109', '-1.878162')"
34.69374,135.50218,Osaka-shi,Osaka,,JP,"('34.7047346', '135.4996726')"
38.75382,-9.23083,Amadora,Lisbon,Amadora,PT,"('38.7288345', '-9.2160907')"
8.72518,77.68452,Tirunelveli,Tamil Nadu,Tirunelveli Kattabo,IN,"('8.7139232', '77.77317')"
55.86515,-4.25763,Glasgow,Scotland,Glasgow City,GB,"('55.8615794', '-4.250166')"
25.33737,55.41206,Sharjah,Ash Shariqah,,AE,"('25.2816229', '55.3947545')"
58.01046,56.25017,Perm,Perm,,RU,"('58.0150089', '56.2276652')"
25.33737,55.41206,Sharjah,Ash Shariqah,,AE,"('25.2139388', '55.2801568')"
31.76904,35.21633,Jerusalem,Jerusalem,,IL,"('31.7746143', '35.186907')"
40.8138,14.36382,Ercolano,Campania,Provincia di Napoli,IT,"('40.7948687', '14.3551008')"
50.90634,4.00093,Haaltert,Flanders,Provincie Oost-Vlaanderen,BE,"('50.9022768', '4.013109')"
52.28038,12.88349,Fichtenwalde,Brandenburg,,DE,"('52.2652544', '12.9215577')"
25.33737,55.41206,Sharjah,Ash Shariqah,,AE,"('25.374719', '55.421133')"
25.33737,55.41206,Sharjah,Ash Shariqah,,AE,"('25.1975102', '55.3551312')"
19.31167,-99.54111,Colonia los Cedros,Mexico,Lerma,MX,"('19.3143919', '-99.5423562')"
21.28854,72.9407,Kathor,Gujarat,Surat,IN,"('21.2700345', '72.9191431')"
25.0657,55.17128,Dubai,Dubai,,AE,"('25.1129873', '55.1915611')"
25.0657,55.17128,Dubai,Dubai,,AE,"('25.17714', '55.273059')"
50.99323,22.1426,Urzedow,Lublin Voivodeship,Powiat krasnicki,PL,"('50.972385', '22.187682')"
39.47523,-0.41825,Mislata,Valencia,Provincia de Valencia,ES,"('39.4933096', '-0.4006796')"
0.35583,32.66722,Bweyogerere,Central Region,Wakiso District,UG,"('0.3867806', '32.6521168')"
45.81444,15.97798,Zagreb,Grad Zagreb,,HR,"('45.8131528', '15.9815049')"
49.40768,8.69079,Heidelberg,Baden-Wuerttemberg,Karlsruhe Region,DE,"('49.41221', '8.70601')"
29.15602,77.99659,Hastinapur,Uttar Pradesh,Meerut,IN,"('29.1657255', '78.0067716')"
23.07041,72.65702,Naroda,Gujarat,Ahmadabad,IN,"('23.039452', '72.6407434')"
18.46523,78.86894,Vemalwada,Telangana,Karimnagar,IN,"('18.4697206', '78.8643198')"
25.33737,55.41206,Sharjah,Ash Shariqah,,AE,"('25.2605861', '55.3221226')"
25.0657,55.17128,Dubai,Dubai,,AE,"('25.131221', '55.196834')"
25.33737,55.41206,Sharjah,Ash Shariqah,,AE,"('25.2542693', '55.3029526')"
24.46667,54.36667,Abu Dhabi,Abu Dhabi,,AE,"('24.4791641', '54.3712149')"
25.33737,55.41206,Sharjah,Ash Shariqah,,AE,"('25.282143', '55.398131')"
25.0657,55.17128,Dubai,Dubai,,AE,"('25.073661', '55.136853')"
33.88894,35.49442,Beirut,Beyrouth,,LB,"('33.8979746', '35.5023629')"
25.0657,55.17128,Dubai,Dubai,,AE,"('24.9866639', '55.0259883')"
22.29941,73.20812,Vadodara,Gujarat,Vadodara,IN,"('22.3013013', '73.1591158')"
24.68773,46.72185,Riyadh,Ar Riyad,,SA,"('24.803842', '46.797461')"
40.4444,49.80566,Bilajari,Baki,,AZ,"('40.3970695', '49.8256654')"
29.07441,31.09785,Bani Suwayf,Muhafazat Bani Suwayf,,EG,"('29.0862473', '31.1103687')"
15.17255,73.94194,Cavelossim,Goa,South Goa,IN,"('15.0887849', '73.9215933')"
25.0657,55.17128,Dubai,Dubai,,AE,"('25.2095084', '55.2751351')"
19.07283,72.88261,Mumbai,Maharashtra,Mumbai Suburban,IN,"('19.0541244', '72.9131189')"
25.07007,45.46147,Marat,Ar Riyad,,SA,"('25.156413', '45.4796658')"
28.63576,77.22445,New Delhi,NCT,New Delhi,IN,"('28.5292291', '77.2182102')"
21.54238,39.19797,Jeddah,Makkah,,SA,"('21.5340976', '39.200926')"
44.80401,20.46513,Belgrade,Central Serbia,,RS,"('44.8031824', '20.4640478')"
-1.36175,36.6566,Ngong,Kajiado,,KE,"('-1.383906', '36.7417891')"
35.8044,51.4256,Tajrish,Tehran,,IR,"('35.7813746', '51.3545297')"
-25.93312,28.01213,Diepsloot,Gauteng,City of Johannesburg Metropolitan Municipality,ZA,"('-26.027359', '28.021033')"
25.33737,55.41206,Sharjah,Ash Shariqah,,AE,"('25.170291', '55.3694014')"
25.0657,55.17128,Dubai,Dubai,,AE,"('25.0208802', '55.1997795')"
1.28967,103.85007,Singapore,,,SG,"('1.2892988', '103.8631368')"
18.59921,73.92701,Lohogaon,Maharashtra,Pune Division,IN,"('18.5671308', '73.9141235')"
52.22904,21.01644,Srodmiescie,Masovian Voivodeship,Warszawa,PL,"('52.2127126', '21.0206811')"
38.73273,0.14354,Benitachell,Valencia,Provincia de Alicante,ES,"('38.7081145', '0.1664803')"
25.0657,55.17128,Dubai,Dubai,,AE,"('25.0619168', '55.2268706')"
31.19594,121.44709,Xuhui,Shanghai Shi,,CN,"('31.195214', '121.436848')"
25.0657,55.17128,Dubai,Dubai,,AE,"('25.1588444', '55.2342401')"
25.0657,55.17128,Dubai,Dubai,,AE,"('25.0761911', '55.1387826')"
25.8651,-80.3245,Hialeah Gardens,Florida,Miami-Dade County,US,"('25.8584364', '-80.3216538')"
6.93194,79.84778,Colombo,Western,,LK,"('6.9184509', '79.8563328')"
56.8519,60.6122,Yekaterinburg,Sverdlovsk,,RU,"('56.8395042', '60.608393')"
25.41111,55.43504,Ajman,Ajman,,AE,"('25.4670355', '55.4929204')"
44.36394,7.64464,Beinette,Piedmont,Provincia di Cuneo,IT,"('44.3627033', '7.6477886')"
43.8497,10.47234,Lucca,Tuscany,Provincia di Lucca,IT,"('43.8451488', '10.5184017')"
24.46667,54.36667,Abu Dhabi,Abu Dhabi,,AE,"('24.3223274', '54.5883923')"
-8.79093,115.16006,Jimbaran,Bali,,ID,"('-8.7855776', '115.1633985')"
56.8519,60.6122,Yekaterinburg,Sverdlovsk,,RU,"('56.8389829', '60.5979436')"
31.54972,74.34361,Lahore,Punjab,,PK,"('31.483154', '74.288658')"
25.33737,55.41206,Sharjah,Ash Shariqah,,AE,"('25.2370552', '55.3067229')"
10.10468,76.3565,Aluva,Kerala,Ernakulam,IN,"('10.1082571', '76.3593987')"
26.44976,74.64116,Ajmer,Rajasthan,Ajmer,IN,"('26.4538544', '74.6330097')"
26.21536,50.5832,Manama,Manama,,BH,"('26.2331312', '50.5749525')"
25.0657,55.17128,Dubai,Dubai,,AE,"('25.1264072', '55.2084059')"
25.33737,55.41206,Sharjah,Ash Shariqah,,AE,"('25.2996325', '55.4505653')"
24.46667,54.36667,Abu Dhabi,Abu Dhabi,,AE,"('24.4204831', '54.4429743')"
25.28812,55.88157,Adh Dhayd,Ash Shariqah,,AE,"('25.2842243', '55.6957483')"
25.0657,55.17128,Dubai,Dubai,,AE,"('25.2257426', '55.2557423')"
24.46667,54.36667,Abu Dhabi,Abu Dhabi,,AE,"('24.3994663', '54.4885209')"
25.0657,55.17128,Dubai,Dubai,,AE,"('25.0515283', '55.2686991')"
-25.93312,28.01213,Diepsloot,Gauteng,City of Johannesburg Metropolitan Municipality,ZA,"('-26.0532', '28.0212')"
0.31628,32.58219,Kampala,Central Region,Kampala District,UG,"('0.2991541', '32.5959688')"
29.61031,52.53113,Shiraz,Fars,,IR,"('29.6245565', '52.5180683')"
25.0657,55.17128,Dubai,Dubai,,AE,"('25.1455845', '55.2237131')"
25.33737,55.41206,Sharjah,Ash Shariqah,,AE,"('25.2455693', '55.3020537')"
25.60222,85.11936,Patna,Bihar,Patna,IN,"('25.609878', '85.1366535')"
9.93988,76.26022,Cochin,Kerala,Ernakulam,IN,"('9.9350877', '76.2628348')"
25.33737,55.41206,Sharjah,Ash Shariqah,,AE,"('25.258407', '55.329807')"
30.00808,31.21093,Al Jizah,Al Jizah,,EG,"('29.9891785', '31.130273')"
40.80427,-74.01208,North Bergen,New Jersey,Hudson County,US,"('40.8017126', '-74.0222621')"
25.0657,55.17128,Dubai,Dubai,,AE,"('25.0420531', '55.1176095')"
44.39583,7.87574,Briaglia,Piedmont,Provincia di Cuneo,IT,"('44.4223439', '7.8536839')"
31.88542,35.8543,Umm as Summaq,Amman,,JO,"('31.8910917', '35.8601847')"
58.59419,16.1826,Norrkoping,OEstergoetland,Norrkopings Kommun,SE,"('58.5879342', '16.1878311')"
39.82219,-7.49087,Castelo Branco,Castelo Branco,Castelo Branco,PT,"('39.823756', '-7.4901407')"
13.00639,80.25417,Gandhi Nagar,Tamil Nadu,Chennai,IN,"('13.0296289', '80.2497542')"
25.33737,55.41206,Sharjah,Ash Shariqah,,AE,"('25.3353068', '55.3723996')"
19.23496,72.85976,Borivli,Maharashtra,Mumbai Suburban,IN,"('19.158757', '72.835081')"
25.0657,55.17128,Dubai,Dubai,,AE,"('25.1424854', '55.2204854')"
25.36457,49.56532,Al Hufuf,Eastern Province,,SA,"('25.4064491', '49.4666438')"
42.46007,18.50647,Igalo,,,ME,"('42.4568009', '18.49266')"
25.12301,68.53577,Tando Muhammad Khan,Sindh,,PK,"('25.2739885', '68.4869861')"
21.54238,39.19797,Jeddah,Makkah,,SA,"('21.596529', '39.1435769')"
28.65156,77.18859,Karol Bagh,NCT,Central Delhi,IN,"('28.6425283', '77.175768')"
40.37767,49.89201,Baku,Baki,,AZ,"('40.374715', '49.856755')"
28.45584,-81.4459,Tangelo Park,Florida,Orange County,US,"('28.473064', '-81.452537')"
40.46667,-3.71667,Tetuan de las Victorias,Madrid,Provincia de Madrid,ES,"('40.4744053', '-3.7032695')"
25.33737,55.41206,Sharjah,Ash Shariqah,,AE,"('25.2623763', '55.4311011')"
28.44945,-81.49229,Doctor Phillips,Florida,Orange County,US,"('28.4319125', '-81.4706183')"
52.5,-1.91667,Hockley,England,City and Borough of Birmingham,GB,"('52.5173006', '-1.9048009')"
25.41111,55.43504,Ajman,Ajman,,AE,"('25.3960169', '55.4942817')"
25.0657,55.17128,Dubai,Dubai,,AE,"('25.1847096', '55.2266246')"
3.1412,101.68653,Kuala Lumpur,Kuala Lumpur,,MY,"('3.147454', '101.708314')"
33.98083,35.61778,Djounie,Mont-Liban,,LB,"('33.9969186', '35.645918')"
25.0657,55.17128,Dubai,Dubai,,AE,"('25.1110979', '55.1418068')"
58.24806,22.50389,Kuressaare,Saare,Kuressaare linn,EE,"('58.2518397', '22.47917')"
25.0657,55.17128,Dubai,Dubai,,AE,"('25.0438081', '55.2506263')"
30.06263,31.24967,Cairo,Muhafazat al Qahirah,,EG,"('30.0544194', '31.3309961')"
25.0657,55.17128,Dubai,Dubai,,AE,"('25.2150573', '55.2508795')"
27.57823,77.69806,Vrindavan,Uttar Pradesh,Mathura,IN,"('27.5823311', '77.7026148')"
53.55196,9.98558,Neustadt,Hamburg,,DE,"('53.5531622', '9.9920919')"
25.0657,55.17128,Dubai,Dubai,,AE,"('25.1865727', '55.2970071')"
-26.08909,28.16534,Modderfontein,Gauteng,City of Johannesburg Metropolitan Municipality,ZA,"('-26.133354', '28.2307576')"
34.69374,135.50218,Osaka-shi,Osaka,,JP,"('34.6631035', '135.5034124')"
29.145,48.13028,Al Mahbulah,Al Ahmadi,,KW,"('29.122035', '48.1182782')"
51.50094,-0.19175,Kensington,England,Greater London,GB,"('51.502155', '-0.18808')"
44.39603,7.81764,Mondovi,Piedmont,Provincia di Cuneo,IT,"('44.3910261', '7.8172376')"
27.43282,77.74153,Mahaban,Uttar Pradesh,Mathura,IN,"('27.4291345', '77.7414136')"
25.0657,55.17128,Dubai,Dubai,,AE,"('25.145478', '55.215879')"
17.01505,54.09237,Salalah,Zufar,,OM,"('17.0235117', '54.0663721')"
25.33737,55.41206,Sharjah,Ash Shariqah,,AE,"('25.238679', '55.312364')"
25.77427,-80.19366,Miami,Florida,Miami-Dade County,US,"('25.8022469', '-80.1911898')"
12.97194,77.59369,Bangalore,Karnataka,Bangalore Urban,IN,"('12.9173268', '77.5855713')"
24.46667,54.36667,Abu Dhabi,Abu Dhabi,,AE,"('24.465197', '54.375828')"
53.79648,-1.54785,Leeds,England,City and Borough of Leeds,GB,"('53.795959', '-1.545179')"
25.0657,55.17128,Dubai,Dubai,,AE,"('25.1269274', '55.2183205')"
25.0657,55.17128,Dubai,Dubai,,AE,"('25.0774124', '55.1494416')"
31.88542,35.8543,Umm as Summaq,Amman,,JO,"('31.8907917', '35.8596268')"
48.9,2.33333,Saint-Ouen,Ile-de-France,Paris,FR,"('48.8819068', '2.3410005')"
25.33737,55.41206,Sharjah,Ash Shariqah,,AE,"('25.222374', '55.289081')"
25.33737,55.41206,Sharjah,Ash Shariqah,,AE,"('25.277076', '55.3284305')"
9.05785,7.49508,Abuja,Abuja Federal Capital Territory,,NG,"('9.0947142', '7.4415572')"
52.19656,21.17752,Wawer,Masovian Voivodeship,Warszawa,PL,"('52.2066612', '21.1728252')"
10.22222,76.19917,Kodungallur,Kerala,Thrissur District,IN,"('10.1517544', '76.1753583')"
25.41111,55.43504,Ajman,Ajman,,AE,"('25.473227', '55.4977128')"
19.23496,72.85976,Borivli,Maharashtra,Mumbai Suburban,IN,"('19.201793', '72.853183')"
12.97194,77.59369,Bangalore,Karnataka,Bangalore Urban,IN,"('12.9656423', '77.6416434')"
37.94745,23.63708,Piraeus,Attica,Nomos Attikis,GR,"('37.9498535', '23.6399546')"
34.25083,36.01056,Bcharre,Liban-Nord,,LB,"('34.2438889', '36.0480556')"
56.8519,60.6122,Yekaterinburg,Sverdlovsk,,RU,"('56.838947', '60.5603938')"
24.68773,46.72185,Riyadh,Ar Riyad,,SA,"('24.7603485', '46.6725921')"
17.43948,75.19379,Sangola,Maharashtra,Solapur,IN,"('17.437401', '75.196419')"
26.32599,43.97497,Buraydah,Al-Qassim,,SA,"('26.3770684', '43.9296447')"
25.56473,55.55517,Umm al Qaywayn,Umm al Qaywayn,,AE,"('25.6697996', '55.7439512')"
55.78874,49.12214,Kazan,Tatarstan,Gorod Kazan',RU,"('55.7993562', '49.1059989')"
33.88894,35.49442,Beirut,Beyrouth,,LB,"('33.8845235', '35.4924817')"
25.33737,55.41206,Sharjah,Ash Shariqah,,AE,"('25.3546906', '55.4003431')"
31.10442,77.16662,Shimla,Himachal Pradesh,Shimla,IN,"('31.1189772', '77.252169')"
28.58,77.33,Noida,Uttar Pradesh,Gautam Buddha Nagar,IN,"('28.5706638', '77.3259827')"
25.0657,55.17128,Dubai,Dubai,,AE,"('25.1152827', '55.1351284')"
24.9056,67.0822,Karachi,Sindh,Karachi District,PK,"('24.9277545', '67.1129656')"
51.54057,-0.14334,Camden Town,England,Greater London,GB,"('51.5222472', '-0.1426128')"
40.74399,-74.03236,Hoboken,New Jersey,Hudson County,US,"('40.72159', '-74.0476031')"
25.0657,55.17128,Dubai,Dubai,,AE,"('25.141251', '55.2178508')"
21.54238,39.19797,Jeddah,Makkah,,SA,"('21.4809617', '39.2357598')"
25.41111,55.43504,Ajman,Ajman,,AE,"('25.3955656', '55.4586031')"
43.3601,-80.31269,Cambridge,Ontario,,CA,"('43.4094194', '-80.3999609')"
25.0657,55.17128,Dubai,Dubai,,AE,"('25.2070594', '55.2692288')"
24.68773,46.72185,Riyadh,Ar Riyad,,SA,"('24.6761183', '46.8019724')"
25.0657,55.17128,Dubai,Dubai,,AE,"('25.125124', '55.1247506')"
26.83928,80.92313,Lucknow,Uttar Pradesh,Lucknow District,IN,"('26.852368', '80.931953')"
25.33737,55.41206,Sharjah,Ash Shariqah,,AE,"('25.2566106', '55.2941604')"
25.33737,55.41206,Sharjah,Ash Shariqah,,AE,"('25.2640733', '55.290952')"
39.41667,-0.38333,Alfafar,Valencia,Provincia de Valencia,ES,"('39.4106005', '-0.3843364')"
52.62783,1.29834,Norwich,England,Norfolk,GB,"('52.6260793', '1.2901429')"
25.0657,55.17128,Dubai,Dubai,,AE,"('25.1075077', '55.1786939')"
18.21639,42.50528,Abha,Mintaqat `Asir,,SA,"('18.2086633', '42.5109214')"
21.54238,39.19797,Jeddah,Makkah,,SA,"('21.4869427', '39.2325787')"
-1.85,34.7,Mugumu,Mara,,TZ,"('-2.3333333', '34.8333333')"
48.8898,2.15863,Chatou,Ile-de-France,Departement des Yvelines,FR,"('48.8864529', '2.1558348')"
36.56486,-4.85561,Ojen,Andalusia,Provincia de Malaga,ES,"('36.500227', '-4.798858')"
33.76446,-117.79394,North Tustin,California,Orange County,US,"('33.78725', '-117.782167')"
57.70716,11.96679,Goeteborg,Vaestra Goetaland,Goteborg,SE,"('57.7010559', '11.9597628')"
25.33737,55.41206,Sharjah,Ash Shariqah,,AE,"('25.262908', '55.3292742')"
31.41667,73.08333,Faisalabad,Punjab,,PK,"('31.4125763', '73.1148847')"
25.0657,55.17128,Dubai,Dubai,,AE,"('25.0491277', '55.1285557')"
25.33737,55.41206,Sharjah,Ash Shariqah,,AE,"('25.3070702', '55.4662776')"
21.54238,39.19797,Jeddah,Makkah,,SA,"('21.439688', '39.204339')"
49.03717,23.51346,Skole,Lviv,,UA,"('49.0102056', '23.4256764')"
39.46975,-0.37739,Valencia,Valencia,Provincia de Valencia,ES,"('39.479944', '-0.3911928')"
24.68773,46.72185,Riyadh,Ar Riyad,,SA,"('24.6984892', '46.6873206')"
24.80361,120.96861,Hsinchu,Taiwan,Hsinchu,TW,"('24.8170051', '120.971655')"
21.36753,40.28694,Al Hada,Makkah,,SA,"('21.3616414', '40.2724403')"
25.0657,55.17128,Dubai,Dubai,,AE,"('25.0493398', '55.2312566')"
24.68773,46.72185,Riyadh,Ar Riyad,,SA,"('24.6323715', '46.7097047')"
25.0657,55.17128,Dubai,Dubai,,AE,"('25.159721', '55.223507')"
25.33737,55.41206,Sharjah,Ash Shariqah,,AE,"('25.2802755', '55.3870302')"
33.72148,73.04329,Islamabad,Islamabad,,PK,"('33.7298988', '73.0382749')"
43.77925,11.24626,Florence,Tuscany,Province of Florence,IT,"('43.7698746', '11.2542077')"
25.17151,51.60337,Al Wakrah,Al Wakrah,,QA,"('25.1629457', '51.6079666')"
35.82348,-78.82556,Morrisville,North Carolina,Wake County,US,"('35.9003383', '-78.7918908')"
25.0657,55.17128,Dubai,Dubai,,AE,"('25.1971277', '55.2762156')"
52.62783,1.29834,Norwich,England,Norfolk,GB,"('52.6253846', '1.3046094')"
8.4855,76.94924,Thiruvananthapuram,Kerala,Thiruvananthapuram,IN,"('8.4891809', '76.953719')"
42.06642,-87.93729,Mount Prospect,Illinois,Cook County,US,"('42.0800107', '-87.9361611')"
25.33737,55.41206,Sharjah,Ash Shariqah,,AE,"('25.2472828', '55.346657')"
40.46667,-3.71667,Tetuan de las Victorias,Madrid,Provincia de Madrid,ES,"('40.4793096', '-3.7107205')"
44.77833,20.47583,Vozdovac,Central Serbia,Belgrade,RS,"('44.7682622', '20.4997963')"
25.0657,55.17128,Dubai,Dubai,,AE,"('25.1225784', '55.2183006')"
26.12259,85.39055,Muzaffarpur,Bihar,Muzaffarpur,IN,"('26.201586', '85.302504')"
49.01667,10.21667,Ellenberg,Baden-Wuerttemberg,Regierungsbezirk Stuttgart,DE,"('49.0955929', '10.221626')"
17.38405,78.45636,Hyderabad,Telangana,Hyderabad,IN,"('17.3921631', '78.4654351')"
25.0657,55.17128,Dubai,Dubai,,AE,"('25.0790707', '55.1381008')"
40.46667,-3.71667,Tetuan de las Victorias,Madrid,Provincia de Madrid,ES,"('40.4719609', '-3.7095431')"
52.55035,13.39139,Gesundbrunnen,Berlin,,DE,"('52.5424', '13.403352')"
12.97194,77.59369,Bangalore,Karnataka,Bangalore Urban,IN,"('12.9967242', '77.5733469')"
9.93988,76.26022,Cochin,Kerala,Ernakulam,IN,"('9.935706', '76.2611665')"
28.65381,77.22897,Delhi,NCT,North Delhi,IN,"('28.6608174', '77.2977564')"
25.0657,55.17128,Dubai,Dubai,,AE,"('25.11819', '55.197527')"
39.46975,-0.37739,Valencia,Valencia,Provincia de Valencia,ES,"('39.4548751', '-0.3504904')"
33.98083,35.61778,Djounie,Mont-Liban,,LB,"('33.9203865', '35.7028084')"
36.03611,14.30944,Qala,Il-Qala,,MT,"('36.0100996', '14.3355527')"
24.68773,46.72185,Riyadh,Ar Riyad,,SA,"('24.6693489', '46.8060839')"
25.33737,55.41206,Sharjah,Ash Shariqah,,AE,"('25.341868', '55.4318351')"
44.86833,13.84806,Pula,Istarska,Grad Pula,HR,"('44.8682754', '13.8470474')"
21.36753,40.28694,Al Hada,Makkah,,SA,"('21.3466686', '40.3265864')"
25.0657,55.17128,Dubai,Dubai,,AE,"('25.1399196', '55.1324114')"
6.32649,99.8432,Kuah,Kedah,Langkawi,MY,"('6.2912736', '99.7274501')"
52.81167,7.04722,Emmer-Compascuum,Drenthe,Gemeente Emmen,NL,"('52.8540068', '6.9786943')"
30.06263,31.24967,Cairo,Muhafazat al Qahirah,,EG,"('30.0578353', '31.2252474')"
37.44529,25.32872,Mykonos,South Aegean,Nomos Kykladon,GR,"('37.4080587', '25.3496232')"
28.58,77.33,Noida,Uttar Pradesh,Gautam Buddha Nagar,IN,"('28.651323', '77.305616')"
44.77917,20.45389,Savski Venac,Central Serbia,Belgrade,RS,"('44.783352', '20.462641')"
21.54238,39.19797,Jeddah,Makkah,,SA,"('21.5610437', '39.1575834')"
25.33737,55.41206,Sharjah,Ash Shariqah,,AE,"('25.3558724', '55.3928461')"
25.33737,55.41206,Sharjah,Ash Shariqah,,AE,"('25.260147', '55.32077')"
11.24802,75.7804,Kozhikode,Kerala,Kozhikode,IN,"('11.2202257', '75.8017108')"
22.56667,88.35,Bara Bazar,West Bengal,Kolkata,IN,"('22.5862965', '88.3614067')"
31.88542,35.8543,Umm as Summaq,Amman,,JO,"('31.927799', '35.856189')"
25.04776,121.53185,Taipei,Taipei,,TW,"('25.0810089', '121.564733')"
24.25088,55.79312,Al Buraymi,Al Buraimi,,OM,"('24.2243518', '55.783083')"
48.81294,2.3417,Gentilly,Ile-de-France,Departement du Val-de-Marne,FR,"('48.8334476', '2.3314341')"
40.75982,-74.4171,Madison,New Jersey,Morris County,US,"('40.7588789', '-74.4145461')"
24.9056,67.0822,Karachi,Sindh,Karachi District,PK,"('24.8547803', '67.0523685')"
21.36753,40.28694,Al Hada,Makkah,,SA,"('21.3459172', '40.3279858')"
25.33737,55.41206,Sharjah,Ash Shariqah,,AE,"('25.2576139', '55.3042694')"
51.02899,7.85139,Olpe,North Rhine-Westphalia,Regierungsbezirk Arnsberg,DE,"('51.0164634', '7.8266733')"
12.97194,77.59369,Bangalore,Karnataka,Bangalore Urban,IN,"('13.0297299', '77.5587495')"
24.9056,67.0822,Karachi,Sindh,Karachi District,PK,"('24.8768349', '67.0626658')"
25.33737,55.41206,Sharjah,Ash Shariqah,,AE,"('25.2620526', '55.3147807')"
19.12361,41.91111,Al Majaridah,Mintaqat `Asir,,SA,"('19.1483', '41.086464')"
25.33737,55.41206,Sharjah,Ash Shariqah,,AE,"('25.2825383', '55.3363623')"
-33.91667,151.2,Alexandria,New South Wales,,AU,"('-33.911709', '151.2106662')"
34.3,35.80889,Amioun,Liban-Nord,,LB,"('34.1733927', '35.8705702')"
28.63576,77.22445,New Delhi,NCT,New Delhi,IN,"('28.5599674', '77.1885681')"
28.58,77.33,Noida,Uttar Pradesh,Gautam Buddha Nagar,IN,"('28.6596898', '77.3170131')"
30.06263,31.24967,Cairo,Muhafazat al Qahirah,,EG,"('30.0032672', '31.4251514')"
29.36972,47.97833,Kuwait City,Al Asimah,,KW,"('29.3667164', '47.9666118')"
24.68773,46.72185,Riyadh,Ar Riyad,,SA,"('24.6932326', '46.7854366')"
-23.5475,-46.63611,Sao Paulo,Sao Paulo,Sao Paulo,BR,"('-23.551475', '-46.5900991')"
28.65381,77.22897,Delhi,NCT,North Delhi,IN,"('28.6555556', '77.2992173')"
5.6658,-0.16307,Medina Estates,Greater Accra,,GH,"('5.72479', '-0.1729529')"
14.5391,121.0726,Pateros,Calabarzon,Province of Rizal,PH,"('14.546748', '121.0545499')"
25.0657,55.17128,Dubai,Dubai,,AE,"('25.087913', '55.1510269')"
-24.0625,-54.30694,Salto del Guaira,Canindeyu,,PY,"('-24.0543351', '-54.3069185')"
12.97194,77.59369,Bangalore,Karnataka,Bangalore Urban,IN,"('12.981478', '77.605953')"
23.55563,58.3989,Bawshar,Muhafazat Masqat,,OM,"('23.615977', '58.462838')"
35.8044,51.4256,Tajrish,Tehran,,IR,"('35.7561989', '51.5121835')"
25.0657,55.17128,Dubai,Dubai,,AE,"('25.0993885', '55.1732298')"
37.566,126.9784,Seoul,Seoul,,KR,"('37.5608998', '126.9938978')"
25.0657,55.17128,Dubai,Dubai,,AE,"('25.1103992', '55.1429953')"
19.30157,72.85107,Bhayandar,Maharashtra,Thane,IN,"('19.2762147', '72.8880687')"
33.89056,35.56639,Jdaidet el Matn,Mont-Liban,,LB,"('33.8799121', '35.5372298')"
45.52345,-122.67621,Portland,Oregon,Multnomah County,US,"('45.5108339', '-122.7182973')"
44.84306,20.40111,Zemun,Central Serbia,Belgrade,RS,"('44.8204917', '20.3834169')"
51.54057,-0.14334,Camden Town,England,Greater London,GB,"('51.5273627', '-0.1353927')"
31.3529,27.23725,Mersa Matruh,Muhafazat Matruh,,EG,"('31.3546233', '27.2388773')"
49.451,20.30179,Kluszkowce,Lesser Poland Voivodeship,Powiat nowotarski,PL,"('49.4447583', '20.3023486')"
30.00808,31.21093,Al Jizah,Al Jizah,,EG,"('29.9715479', '31.2722138')"
25.0657,55.17128,Dubai,Dubai,,AE,"('25.110705', '55.21919')"
25.33737,55.41206,Sharjah,Ash Shariqah,,AE,"('25.3089429', '55.3689842')"
39.87678,3.01626,Pollenca,Balearic Islands,Illes Balears,ES,"('39.8773954', '3.0163104')"
35.76727,-5.79975,Tangier,Tanger-Tetouan,Tanger-Assilah,MA,"('35.7749939', '-5.7844067')"
24.68773,46.72185,Riyadh,Ar Riyad,,SA,"('24.7271852', '46.6905719')"
24.68773,46.72185,Riyadh,Ar Riyad,,SA,"('24.6336009', '46.7961667')"
32.71533,-117.15726,San Diego,California,San Diego County,US,"('32.7647903', '-117.2266083')"
19.30157,72.85107,Bhayandar,Maharashtra,Thane,IN,"('19.3010336', '72.8469444')"
25.33737,55.41206,Sharjah,Ash Shariqah,,AE,"('25.2482277', '55.3040841')"
25.36861,51.22639,Ash Shahaniyah,Baladiyat ar Rayyan,,QA,"('25.3492558', '51.2608358')"
38.71745,-9.29833,Porto Salvo,Lisbon,Oeiras,PT,"('38.7061321', '-9.3023737')"
25.0657,55.17128,Dubai,Dubai,,AE,"('25.1856422', '55.2576891')"
10.30067,76.33763,Kizhake Chalakudi,Kerala,Thrissur District,IN,"('10.4157304', '76.3960124')"
40.78343,-73.96625,Manhattan,New York,New York County,US,"('40.793977', '-73.9342599')"
25.0657,55.17128,Dubai,Dubai,,AE,"('25.1146579', '55.2180283')"
30.55083,73.39083,Bahawalnagar,Punjab,,PK,"('30.6067265', '73.3325788')"
24.1469,120.6839,Taichung,Taiwan,Taichung City,TW,"('24.1452417', '120.677978')"
31.32556,75.57917,Jalandhar,Punjab,Jalandhar,IN,"('31.3160218', '75.654717')"
6.32649,99.8432,Kuah,Kedah,Langkawi,MY,"('6.2992534', '99.7208867')"
38.3004,-76.50745,California,Maryland,Saint Mary's County,US,"('38.2990915', '-76.5091241')"
44.39583,7.87574,Briaglia,Piedmont,Provincia di Cuneo,IT,"('44.4195151', '7.8515413')"
9.05785,7.49508,Abuja,Abuja Federal Capital Territory,,NG,"('9.074615', '7.475428')"
37.7119,128.18713,Seoseok,Gangwon-do,,KR,"('37.6207758', '128.3541675')"
49.83826,24.02324,L'viv,Lviv,,UA,"('49.843923', '24.0265981')"
25.33737,55.41206,Sharjah,Ash Shariqah,,AE,"('25.256774', '55.326426')"
25.33737,55.41206,Sharjah,Ash Shariqah,,AE,"('25.334108', '55.392562')"
25.33737,55.41206,Sharjah,Ash Shariqah,,AE,"('25.3022252', '55.3763927')"
13.36179,103.86056,Siem Reap,Siem Reap,,KH,"('13.3717765', '103.8537302')"
32.02581,35.86458,Al Jubayhah,Amman,,JO,"('31.9897128', '35.8850625')"
24.46861,39.61417,Medina,Al Madinah al Munawwarah,,SA,"('24.471525', '39.6111549')"
28.26689,83.96851,Pokhara,Western Region,Gandaki Zone,NP,"('28.206343', '83.9615489')"
26.43442,50.10326,Dammam,Eastern Province,,SA,"('26.4166141', '50.0514388')"
37.64129,-0.71651,La Manga del Mar Menor,Murcia,Murcia,ES,"('37.6669021', '-0.7274344')"
44.39583,7.87574,Briaglia,Piedmont,Provincia di Cuneo,IT,"('44.4230329', '7.8533287')"
45.56995,-73.692,Laval,Quebec,Laval,CA,"('45.5621306', '-73.7442751')"
58.69979,12.45312,Mellerud,Vaestra Goetaland,Melleruds Kommun,SE,"('58.700428', '12.4518123')"
25.78953,55.9432,Ras al-Khaimah,Ra's al Khaymah,,AE,"('25.6649326', '55.8064562')"
39.47523,-0.41825,Mislata,Valencia,Provincia de Valencia,ES,"('39.4684725', '-0.407792')"
24.46667,54.36667,Abu Dhabi,Abu Dhabi,,AE,"('24.4723506', '54.3496951')"
10.10764,76.35158,Aluva,Kerala,Ernakulam,IN,"('10.112682', '76.352199')"
26.21861,50.54778,Jidd Hafs,Manama,,BH,"('26.232159', '50.540903')"
31.78199,35.21961,West Jerusalem,Jerusalem,,IL,"('31.7803773', '35.2162867')"
30.12303,31.13571,Awsim,Al Jizah,,EG,"('30.0774707', '31.0167231')"
25.33737,55.41206,Sharjah,Ash Shariqah,,AE,"('25.2710737', '55.3024688')"
25.33737,55.41206,Sharjah,Ash Shariqah,,AE,"('25.2538042', '55.3028456')"
34.14251,-118.25508,Glendale,California,Los Angeles County,US,"('34.1446642', '-118.2575858')"
25.33737,55.41206,Sharjah,Ash Shariqah,,AE,"('25.2234079', '55.2824313')"
25.33737,55.41206,Sharjah,Ash Shariqah,,AE,"('25.2679631', '55.2964291')"
25.33737,55.41206,Sharjah,Ash Shariqah,,AE,"('25.2761889', '55.3306021')"
52.24424,21.08545,Praga Poludnie,Masovian Voivodeship,Warszawa,PL,"('52.2391513', '21.0998501')"
25.0657,55.17128,Dubai,Dubai,,AE,"('25.1131919', '55.204803')"
25.0657,55.17128,Dubai,Dubai,,AE,"('25.066464', '55.1373809')"
25.33737,55.41206,Sharjah,Ash Shariqah,,AE,"('25.266703', '55.307815')"
50.83417,5.98194,Simpelveld,Limburg,Gemeente Simpelveld,NL,"('50.8575278', '6.0073774')"
9.02165,76.93265,Punalur,Kerala,Kollam,IN,"('8.9758957', '76.9255268')"
25.0657,55.17128,Dubai,Dubai,,AE,"('25.0953469', '55.1728516')"
25.72149,-80.26838,Coral Gables,Florida,Miami-Dade County,US,"('25.7514885', '-80.2622907')"
19.07283,72.88261,Mumbai,Maharashtra,Mumbai Suburban,IN,"('19.102949', '72.846533')"
3.1412,101.68653,Kuala Lumpur,Kuala Lumpur,,MY,"('3.1560983', '101.6955216')"
9.05785,7.49508,Abuja,Abuja Federal Capital Territory,,NG,"('9.076187', '7.4868968')"
0.31628,32.58219,Kampala,Central Region,Kampala District,UG,"('0.3237808', '32.5962327')"
21.54238,39.19797,Jeddah,Makkah,,SA,"('21.5495691', '39.1473341')"
25.33737,55.41206,Sharjah,Ash Shariqah,,AE,"('25.3729943', '55.4243197')"
25.33737,55.41206,Sharjah,Ash Shariqah,,AE,"('25.2768641', '55.3060871')"
35.23417,128.88111,Kimhae,Gyeongsangnam-do,,KR,"('35.1944556', '128.8014492')"
25.0657,55.17128,Dubai,Dubai,,AE,"('25.101511', '55.177559')"
51.9,-2.08333,Cheltenham,England,Gloucestershire,GB,"('51.892983', '-2.0797751')"
29.29583,48.07861,Salwa,Muhafazat Hawalli,,KW,"('29.3031013', '48.0878693')"
9.05785,7.49508,Abuja,Abuja Federal Capital Territory,,NG,"('9.0674393', '7.4855219')"
36.09719,-115.14666,Paradise,Nevada,Clark County,US,"('36.117715', '-115.154656')"
51.9225,4.47917,Rotterdam,South Holland,Gemeente Rotterdam,NL,"('51.9200582', '4.4867766')"
18.51957,73.85535,Pune,Maharashtra,Pune Division,IN,"('18.5174134', '73.8793659')"
25.33737,55.41206,Sharjah,Ash Shariqah,,AE,"('25.2911838', '55.3938954')"
25.33737,55.41206,Sharjah,Ash Shariqah,,AE,"('25.2583367', '55.2981483')"
8.39854,77.08586,Neyyattinkara,Kerala,Thiruvananthapuram,IN,"('8.3597493', '77.0532507')"
18.58182,-68.40431,Punta Cana,San Juan,,DO,"('18.5402717', '-68.3540117')"
35.8044,51.4256,Tajrish,Tehran,,IR,"('35.7770984', '51.4650786')"
25.0657,55.17128,Dubai,Dubai,,AE,"('25.1903934', '55.2967739')"
31.54972,74.34361,Lahore,Punjab,,PK,"('31.5577553', '74.3162468')"
25.0657,55.17128,Dubai,Dubai,,AE,"('25.073118', '55.128883')"
25.0657,55.17128,Dubai,Dubai,,AE,"('25.0762611', '55.3069415')"
59.91273,10.74609,Oslo,Oslo,Oslo,NO,"('59.923535', '10.75751')"
25.0657,55.17128,Dubai,Dubai,,AE,"('25.1402183', '55.2172053')"
31.77667,35.23417,Old City,West Bank,,PS,"('31.775417', '35.23439')"
36.56486,-4.85561,Ojen,Andalusia,Provincia de Malaga,ES,"('36.49634', '-4.774612')"
25.56473,55.55517,Umm al Qaywayn,Umm al Qaywayn,,AE,"('25.4945708', '55.5514515')"
0.3475,32.64917,Kireka,Central Region,Wakiso District,UG,"('0.3492962', '32.6160616')"
25.33737,55.41206,Sharjah,Ash Shariqah,,AE,"('25.2029026', '55.3775069')"
25.41111,55.43504,Ajman,Ajman,,AE,"('25.4021046', '55.5064756')"
29.33389,48.07611,As Salimiyah,Muhafazat Hawalli,,KW,"('29.339196', '48.08415')"
33.88894,35.49442,Beirut,Beyrouth,,LB,"('33.897118', '35.5241874')"
35.51877,23.93011,Agia Marina,Crete,Nomos Chanias,GR,"('35.518037', '23.917236')"
51.76109,18.09102,Kalisz,Greater Poland Voivodeship,Kalisz,PL,"('51.7435944', '18.0700196')"
8.31792,77.19192,Kuzhithurai,Tamil Nadu,Kanniyakumari,IN,"('8.2828233', '77.1163402')"
28.75153,77.288,Loni,Uttar Pradesh,Ghaziabad,IN,"('28.6700866', '77.3127826')"
16.9027,81.67451,Nidadavole,Andhra Pradesh,West Godavari,IN,"('16.9046383', '81.6761801')"
12.97194,77.59369,Bangalore,Karnataka,Bangalore Urban,IN,"('12.9593513', '77.5736415')"
25.04776,121.53185,Taipei,Taipei,,TW,"('25.048985', '121.5527659')"
28.58,77.33,Noida,Uttar Pradesh,Gautam Buddha Nagar,IN,"('28.566095', '77.284707')"
28.65381,77.22897,Delhi,NCT,North Delhi,IN,"('28.6565681', '77.3019443')"
25.33737,55.41206,Sharjah,Ash Shariqah,,AE,"('25.2303042', '55.272468')"
25.33737,55.41206,Sharjah,Ash Shariqah,,AE,"('25.2463423', '55.4533232')"
10.60826,76.1762,Avanoor,Kerala,Thrissur District,IN,"('10.5793727', '76.1253673')"
25.36457,49.56532,Al Hufuf,Eastern Province,,SA,"('25.3497521', '49.6071503')"
41.41849,2.1677,Horta-Guinardo,Catalonia,Provincia de Barcelona,ES,"('41.4026528', '2.1763908')"
52.5,-1.91667,Hockley,England,City and Borough of Birmingham,GB,"('52.5075942', '-1.8919173')"
52.19656,21.17752,Wawer,Masovian Voivodeship,Warszawa,PL,"('52.1817982', '21.1900992')"
25.0657,55.17128,Dubai,Dubai,,AE,"('25.2143444', '55.2761957')"
24.68773,46.72185,Riyadh,Ar Riyad,,SA,"('24.7917818', '46.6246944')"
28.58,77.33,Noida,Uttar Pradesh,Gautam Buddha Nagar,IN,"('28.6414355', '77.3168591')"
25.33737,55.41206,Sharjah,Ash Shariqah,,AE,"('25.2432367', '55.3067365')"
39.47523,-0.41825,Mislata,Valencia,Provincia de Valencia,ES,"('39.46957', '-0.40248')"
31.54972,74.34361,Lahore,Punjab,,PK,"('31.4703322', '74.2766979')"
25.0657,55.17128,Dubai,Dubai,,AE,"('25.0780657', '55.1364058')"
40.71427,-74.00597,New York City,New York,,US,"('40.7372437', '-73.9893438')"
24.68773,46.72185,Riyadh,Ar Riyad,,SA,"('24.7142043', '46.7932317')"
25.0657,55.17128,Dubai,Dubai,,AE,"('25.031469', '55.256449')"
51.14296,0.32187,Pembury,England,Kent,GB,"('51.1581651', '0.2953283')"
25.33737,55.41206,Sharjah,Ash Shariqah,,AE,"('25.127702', '55.396787')"
25.0657,55.17128,Dubai,Dubai,,AE,"('25.1192355', '55.2130087')"
18.3,42.73333,Khamis Mushait,Mintaqat `Asir,,SA,"('18.3089696', '42.7306785')"
24.68773,46.72185,Riyadh,Ar Riyad,,SA,"('24.7985604', '46.6971627')"
12.97194,77.59369,Bangalore,Karnataka,Bangalore Urban,IN,"('12.9807559', '77.6040014')"
9.05785,7.49508,Abuja,Abuja Federal Capital Territory,,NG,"('9.046167', '7.4879393')"
25.33737,55.41206,Sharjah,Ash Shariqah,,AE,"('25.2637011', '55.3859854')"
44.41458,8.91,San Teodoro,Liguria,Provincia di Genova,IT,"('44.4102211', '8.9266709')"
25.0657,55.17128,Dubai,Dubai,,AE,"('25.2297337', '55.2564841')"
27.01122,49.65825,Al Jubayl,Eastern Province,,SA,"('27.1130285', '49.5675659')"
24.68773,46.72185,Riyadh,Ar Riyad,,SA,"('24.6821296', '46.786319')"
25.33737,55.41206,Sharjah,Ash Shariqah,,AE,"('25.2491999', '55.3047146')"
21.54238,39.19797,Jeddah,Makkah,,SA,"('21.75977', '39.1941644')"
25.11641,56.34141,Al Fujayrah,Al Fujayrah,,AE,"('25.1237914', '56.2774943')"
63.29762,10.48261,Klaebu,Sor-Trondelag,Klaebu,NO,"('63.3721752', '10.512763')"
33.9,35.48333,Ra's Bayrut,Beyrouth,,LB,"('33.8918877', '35.4716721')"
25.33737,55.41206,Sharjah,Ash Shariqah,,AE,"('25.2499416', '55.3043299')"
41.89193,12.51133,Rome,Latium,Citta metropolitana di Roma Capitale,IT,"('41.9078216', '12.4989725')"
25.33737,55.41206,Sharjah,Ash Shariqah,,AE,"('25.2216798', '55.2810044')"
32.02581,35.86458,Al Jubayhah,Amman,,JO,"('31.9723813', '35.8791365')"
58.10861,57.80528,Lys'va,Perm,,RU,"('58.0920618', '57.798847')"
44.03325,2.53554,Requista,Midi-Pyrenees,Departement de l'Aveyron,FR,"('44.0198154', '2.4026557')"
24.68773,46.72185,Riyadh,Ar Riyad,,SA,"('24.8063283', '46.6406831')"
41.69411,44.83368,Tbilisi,T'bilisi,,GE,"('41.6888919', '44.8207363')"
25.33737,55.41206,Sharjah,Ash Shariqah,,AE,"('25.311078', '55.459333')"
13.02319,77.02518,Kunigal,Karnataka,Tumkur,IN,"('12.997608', '76.924141')"
19.87757,75.34226,Aurangabad,Maharashtra,Aurangabad Division,IN,"('19.8797105', '75.3238818')"
25.0657,55.17128,Dubai,Dubai,,AE,"('25.0650915', '55.1387907')"
37.38283,-5.97317,Sevilla,Andalusia,Provincia de Sevilla,ES,"('37.3910028', '-5.9946059')"
24.46667,54.36667,Abu Dhabi,Abu Dhabi,,AE,"('24.489797', '54.3628053')"
52.92277,-1.47663,Derby,England,Derby,GB,"('52.906384', '-1.5047494')"
25.33737,55.41206,Sharjah,Ash Shariqah,,AE,"('25.1727006', '55.4250145')"
52.60831,1.73052,Great Yarmouth,England,Norfolk,GB,"('52.600049', '1.7172442')"
-32.83369,-70.59827,Los Andes,Valparaiso,Provincia de Los Andes,CL,"('-32.8352651', '-70.1293349')"
25.0657,55.17128,Dubai,Dubai,,AE,"('25.1972511', '55.277845')"
25.33737,55.41206,Sharjah,Ash Shariqah,,AE,"('25.2244605', '55.3177362')"
43.25186,2.36552,Villemoustaussou,Languedoc-Roussillon,Departement de l'Aude,FR,"('43.2352859', '2.368233')"
19.1164,72.90471,Powai,Maharashtra,Mumbai Suburban,IN,"('19.1222403', '72.8685915')"
8.03169,98.33408,Thalang,Phuket,,TH,"('8.0612393', '98.4322369')"
10.31745,123.919,Baugo,Central Visayas,Cebu City,PH,"('10.3181448', '123.9052629')"
12.97194,77.59369,Bangalore,Karnataka,Bangalore Urban,IN,"('12.8128962', '77.5109723')"
53.79648,-1.54785,Leeds,England,City and Borough of Leeds,GB,"('53.7999389', '-1.5376422')"
25.41111,55.43504,Ajman,Ajman,,AE,"('25.4008196', '55.5054842')"
25.0657,55.17128,Dubai,Dubai,,AE,"('25.087695', '55.146579')"
25.0657,55.17128,Dubai,Dubai,,AE,"('25.162367', '55.238822')"
40.71427,-74.00597,New York City,New York,,US,"('40.7026938', '-73.993448')"
40.62862,-3.16185,Guadalajara,Castille-La Mancha,Provincia de Guadalajara,ES,"('40.6291359', '-3.1575692')"
25.27932,51.52245,Doha,Baladiyat ad Dawhah,,QA,"('25.3224794', '51.4871089')"
6.32649,99.8432,Kuah,Kedah,Langkawi,MY,"('6.2950047', '99.7235726')"
24.46667,54.36667,Abu Dhabi,Abu Dhabi,,AE,"('24.4386081', '54.4126278')"
48.20849,16.37208,Vienna,Vienna,Wien Stadt,AT,"('48.2019869', '16.3340138')"
25.33737,55.41206,Sharjah,Ash Shariqah,,AE,"('25.264473', '55.3039939')"
32.02594,44.34625,An Najaf,An Najaf,,IQ,"('31.9974355', '44.3368905')"
62.13333,25.66667,Muurame,Central Finland,Jyvaeskylae,FI,"('62.1655019', '25.619067')"
24.68773,46.72185,Riyadh,Ar Riyad,,SA,"('24.7466513', '46.6804925')"
36.53998,-4.62473,Fuengirola,Andalusia,Provincia de Malaga,ES,"('36.5070151', '-4.7171581')"
18.3,42.73333,Khamis Mushait,Mintaqat `Asir,,SA,"('18.3045654', '42.7320445')"
31.25444,74.21778,Raiwind,Punjab,,PK,"('31.2995987', '74.225272')"
25.0657,55.17128,Dubai,Dubai,,AE,"('25.1985959', '55.2266112')"
52.58333,-1.88333,Streetly,England,Walsall,GB,"('52.5539858', '-1.8836001')"
25.41111,55.43504,Ajman,Ajman,,AE,"('25.3970222', '55.4728853')"
29.36972,47.97833,Kuwait City,Al Asimah,,KW,"('29.3773356', '47.9900766')"
26.43442,50.10326,Dammam,Eastern Province,,SA,"('26.4545863', '50.1323768')"
44.34804,7.76752,Villanova Mondovi,Piedmont,Provincia di Cuneo,IT,"('44.3501913', '7.7676789')"
53.48095,-2.23743,Manchester,England,Manchester,GB,"('53.4787217', '-2.2332895')"
25.0657,55.17128,Dubai,Dubai,,AE,"('25.0813756', '55.1377054')"
25.0657,55.17128,Dubai,Dubai,,AE,"('25.2213527', '55.2350908')"
24.19167,55.76056,Al Ain,Abu Dhabi,,AE,"('24.2371864', '55.7202687')"
24.68773,46.72185,Riyadh,Ar Riyad,,SA,"('24.7083577', '46.6621297')"
52.37403,4.88969,Amsterdam,North Holland,Gemeente Amsterdam,NL,"('52.34476', '4.864682')"
25.41111,55.43504,Ajman,Ajman,,AE,"('25.4278284', '55.5248044')"
32.49268,74.53134,Sialkot,Punjab,,PK,"('32.4863886', '74.5059155')"
53.61766,-2.1552,Rochdale,England,Borough of Rochdale,GB,"('53.6204813', '-2.1808741')"
38.93709,-8.87178,Samora Correia,Santarem,Benavente,PT,"('38.9331959', '-8.8758228')"
38.89511,-77.03637,"Washington, D.C.","Washington, D.C.",,US,"('38.9165712', '-77.0454106')"
52.22096,20.98526,Ochota,Masovian Voivodeship,Warszawa,PL,"('52.2036023', '20.9791415')"
25.0657,55.17128,Dubai,Dubai,,AE,"('25.1910423', '55.2769931')"
24.1469,120.6839,Taichung,Taiwan,Taichung City,TW,"('24.1673825', '120.6800961')"
37.47722,126.86639,Kwangmyong,Gyeonggi-do,,KR,"('37.5275272', '126.892173')"
10.87655,76.30932,Cherpulassery,Kerala,Palakkad district,IN,"('10.9798299', '76.2256631')"
25.0657,55.17128,Dubai,Dubai,,AE,"('25.045255', '55.131616')"
24.83833,121.00778,Zhubei,Taiwan,Hsinchu,TW,"('24.8317613', '121.0050702')"
24.68773,46.72185,Riyadh,Ar Riyad,,SA,"('24.7447571', '46.7544544')"
50.93117,7.04412,Ostheim,North Rhine-Westphalia,Regierungsbezirk Koln,DE,"('50.9184259', '7.047469')"
10.76695,75.92523,Ponnani,Kerala,Malappuram,IN,"('10.7844759', '76.0057435')"
21.42664,39.82563,Mecca,Makkah,,SA,"('21.4598016', '39.8417602')"
25.33737,55.41206,Sharjah,Ash Shariqah,,AE,"('25.2317521', '55.3130583')"
19.07283,72.88261,Mumbai,Maharashtra,Mumbai Suburban,IN,"('18.9900593', '72.8147973')"
39.5111,2.5353,Magaluf,Balearic Islands,Illes Balears,ES,"('39.5330259', '2.5635671')"
24.46667,54.36667,Abu Dhabi,Abu Dhabi,,AE,"('24.435843', '54.633639')"
40.43404,-3.70379,Chamberi,Madrid,Provincia de Madrid,ES,"('40.4469698', '-3.6998479')"
25.0657,55.17128,Dubai,Dubai,,AE,"('25.0439151', '55.1200128')"
3.1412,101.68653,Kuala Lumpur,Kuala Lumpur,,MY,"('3.1472495', '101.7138979')"
33.80528,35.6,Aaley,Mont-Liban,,LB,"('33.7858144', '35.5586628')"
25.0657,55.17128,Dubai,Dubai,,AE,"('25.1260294', '55.2078847')"
56.96365,-2.21177,Stonehaven,Scotland,Aberdeenshire,GB,"('56.894779', '-2.217554')"
19.23496,72.85976,Borivli,Maharashtra,Mumbai Suburban,IN,"('19.2301946', '72.8478001')"
10.10468,76.3565,Aluva,Kerala,Ernakulam,IN,"('10.1089606', '76.371929')"
0.31628,32.58219,Kampala,Central Region,Kampala District,UG,"('0.341412', '32.6099049')"
21.42664,39.82563,Mecca,Makkah,,SA,"('21.3752033', '39.7978345')"
25.0657,55.17128,Dubai,Dubai,,AE,"('25.0666895', '55.4042518')"
12.97194,77.59369,Bangalore,Karnataka,Bangalore Urban,IN,"('13.0303002', '77.5598133')"
34.05223,-118.24368,Los Angeles,California,Los Angeles County,US,"('34.044814', '-118.25666')"
25.33737,55.41206,Sharjah,Ash Shariqah,,AE,"('25.2645264', '55.2998783')"
33.83389,35.54417,Baabda,Mont-Liban,,LB,"('33.7782814', '35.4719969')"
6.59651,3.34205,Ikeja,Lagos,,NG,"('6.581519', '3.3446125')"
51.32254,4.94471,Turnhout,Flanders,Provincie Antwerpen,BE,"('51.3229736', '4.9439338')"
45.50241,12.32632,Tessera,Veneto,Provincia di Venezia,IT,"('45.5029023', '12.3384973')"
11.38016,77.89444,Tiruchengode,Tamil Nadu,Namakkal,IN,"('11.4545239', '77.8051959')"
25.0657,55.17128,Dubai,Dubai,,AE,"('25.2155508', '55.2516315')"
25.33737,55.41206,Sharjah,Ash Shariqah,,AE,"('25.2771756', '55.3464851')"
14.2726,121.1262,Cabuyao,Calabarzon,Province of Laguna,PH,"('14.2463547', '121.1299842')"
23.55563,58.3989,Bawshar,Muhafazat Masqat,,OM,"('23.5902115', '58.4110941')"
9.37028,125.94917,Carrascal,Caraga,Province of Surigao del Sur,PH,"('9.3758109', '125.9789496')"
52.37403,4.88969,Amsterdam,North Holland,Gemeente Amsterdam,NL,"('52.3717805', '4.8969197')"
24.68773,46.72185,Riyadh,Ar Riyad,,SA,"('24.5949613', '46.6356907')"
12.97194,77.59369,Bangalore,Karnataka,Bangalore Urban,IN,"('12.9838723', '77.6084065')"
25.33737,55.41206,Sharjah,Ash Shariqah,,AE,"('25.273345', '55.332329')"
25.33737,55.41206,Sharjah,Ash Shariqah,,AE,"('25.2912716', '55.38563')"
19.1164,72.90471,Powai,Maharashtra,Mumbai Suburban,IN,"('19.1412127', '72.8309064')"
50.87481,8.02431,Siegen,North Rhine-Westphalia,Regierungsbezirk Arnsberg,DE,"('50.8877729', '8.0285334')"
41.38896,2.16179,Eixample,Catalonia,Provincia de Barcelona,ES,"('41.3940829', '2.160429')"
29.36972,47.97833,Kuwait City,Al Asimah,,KW,"('29.3734921', '47.9732606')"
52.5,-1.91667,Hockley,England,City and Borough of Birmingham,GB,"('52.5152936', '-1.9127143')"
29.14583,48.09472,Ar Riqqah,Al Ahmadi,,KW,"('29.140369', '48.1082749')"
25.33737,55.41206,Sharjah,Ash Shariqah,,AE,"('25.3384469', '55.3893636')"
25.0657,55.17128,Dubai,Dubai,,AE,"('25.1508105', '55.1996253')"
23.90381,86.19792,Topchanchi,Jharkhand,Dhanbad,IN,"('23.9280955', '86.2016635')"
25.11641,56.34141,Al Fujayrah,Al Fujayrah,,AE,"('25.124885', '56.2779074')"
1.28967,103.85007,Singapore,,,SG,"('1.2933536', '103.8535598')"
14.6042,120.9822,Manila,Metro Manila,City of Manila,PH,"('14.605086', '120.972788')"
25.0657,55.17128,Dubai,Dubai,,AE,"('25.064221', '55.13828')"
12.97194,77.59369,Bangalore,Karnataka,Bangalore Urban,IN,"('12.8992723', '77.5968325')"
52.49699,-1.97305,Smethwick,England,Sandwell,GB,"('52.4610445', '-1.9431366')"
25.33737,55.41206,Sharjah,Ash Shariqah,,AE,"('25.2808186', '55.3521258')"
53.36762,-3.05479,Prenton,England,Metropolitan Borough of Wirral,GB,"('53.3829513', '-3.0433301')"
25.33737,55.41206,Sharjah,Ash Shariqah,,AE,"('25.2940507', '55.3781945')"
37.64129,-0.71651,La Manga del Mar Menor,Murcia,Murcia,ES,"('37.6636173', '-0.7207292')"
25.0657,55.17128,Dubai,Dubai,,AE,"('24.9857966', '55.3256076')"
25.33737,55.41206,Sharjah,Ash Shariqah,,AE,"('25.2664562', '55.3102059')"
40.4165,-3.70256,Madrid,Madrid,Provincia de Madrid,ES,"('40.4119314', '-3.7059089')"
21.19594,72.83023,Surat,Gujarat,Surat,IN,"('21.2006594', '72.7894881')"
19.12361,41.91111,Al Majaridah,Mintaqat `Asir,,SA,"('19.1278927', '41.0812591')"
25.0657,55.17128,Dubai,Dubai,,AE,"('25.1060587', '55.1482584')"
25.0657,55.17128,Dubai,Dubai,,AE,"('25.1185344', '55.2027538')"
25.33737,55.41206,Sharjah,Ash Shariqah,,AE,"('25.2975215', '55.4387805')"
25.0657,55.17128,Dubai,Dubai,,AE,"('25.1850332', '55.2552493')"
25.0657,55.17128,Dubai,Dubai,,AE,"('25.1181927', '55.1982601')"
25.33737,55.41206,Sharjah,Ash Shariqah,,AE,"('25.2335371', '55.2634166')"
52.45,-1.81667,Acocks Green,England,City and Borough of Birmingham,GB,"('52.4478673', '-1.8606137')"
22.2398,73.08451,Padra,Gujarat,Vadodara,IN,"('22.3203723', '73.1154627')"
20.01288,41.46767,Al Bahah,Mintaqat al Bahah,,SA,"('19.782847', '41.4390836')"
25.41111,55.43504,Ajman,Ajman,,AE,"('25.4525944', '55.4923779')"
25.33737,55.41206,Sharjah,Ash Shariqah,,AE,"('25.2597496', '55.33667')"
12.97194,77.59369,Bangalore,Karnataka,Bangalore Urban,IN,"('13.0158194', '77.6239329')"
40.42972,-3.67975,Salamanca,Madrid,Provincia de Madrid,ES,"('40.4428434', '-3.6819898')"
24.68773,46.72185,Riyadh,Ar Riyad,,SA,"('24.7326427', '46.6638953')"
31.71306,73.97833,Sheikhupura,Punjab,,PK,"('31.7069161', '73.9944816')"
51.55765,0.07278,Ilford,England,Greater London,GB,"('51.5590849', '0.085978')"
25.0657,55.17128,Dubai,Dubai,,AE,"('25.088821', '55.1468885')"
25.0657,55.17128,Dubai,Dubai,,AE,"('25.081119', '55.1372718')"
25.33737,55.41206,Sharjah,Ash Shariqah,,AE,"('25.2433607', '55.3428967')"
25.41111,55.43504,Ajman,Ajman,,AE,"('25.3938193', '55.4663403')"
25.0657,55.17128,Dubai,Dubai,,AE,"('25.0793623', '55.157309')"
24.68773,46.72185,Riyadh,Ar Riyad,,SA,"('24.6951549', '46.6994905')"
36.84681,-76.28522,Norfolk,Virginia,City of Norfolk,US,"('36.882108', '-76.1994414')"
25.33737,55.41206,Sharjah,Ash Shariqah,,AE,"('25.2230355', '55.281747')"
13.47215,144.71654,Asan-Maina Village,Asan,,GU,"('13.4740972', '144.7198283')"
24.68773,46.72185,Riyadh,Ar Riyad,,SA,"('24.6927763', '46.6952227')"
38.3004,-76.50745,California,Maryland,Saint Mary's County,US,"('38.2933134', '-76.5033435')"
28.58,77.33,Noida,Uttar Pradesh,Gautam Buddha Nagar,IN,"('28.667328', '77.317328')"
19.76616,74.47738,Shirdi,Maharashtra,Ahmadnagar,IN,"('19.7682281', '74.4777882')"
31.71599,35.79392,Madaba,Madaba,,JO,"('31.6832556', '35.5750544')"
25.27932,51.52245,Doha,Baladiyat ad Dawhah,,QA,"('25.347366', '51.529618')"
8.17731,77.43437,Nagercoil,Tamil Nadu,Kanniyakumari,IN,"('8.1697428', '77.421522')"
24.68773,46.72185,Riyadh,Ar Riyad,,SA,"('24.7406227', '46.7500985')"
37.67854,-122.0458,Fairview,California,Alameda County,US,"('37.689144', '-122.063058')"
50.85045,4.34878,Brussels,Brussels Capital,Bruxelles-Capitale,BE,"('50.8462742', '4.3545679')"
34.01418,75.31899,Pahalgam,Kashmir,Anantnag,IN,"('34.037021', '75.32252')"
-30.03306,-51.23,Porto Alegre,Rio Grande do Sul,Porto Alegre,BR,"('-30.0335188', '-51.2061249')"
25.0657,55.17128,Dubai,Dubai,,AE,"('25.0805667', '55.1457372')"
21.54238,39.19797,Jeddah,Makkah,,SA,"('21.5172782', '39.2140276')"
26.25722,50.61194,Al Muharraq,Muharraq,,BH,"('26.2646062', '50.6022358')"
24.46667,54.36667,Abu Dhabi,Abu Dhabi,,AE,"('24.4338292', '54.4366554')"
31.25654,32.28411,Port Said,Muhafazat Bur Sa`id,,EG,"('31.2728098', '32.2833436')"
22.56263,88.36304,Kolkata,West Bengal,Kolkata,IN,"('22.5394328', '88.3657664')"
24.68773,46.72185,Riyadh,Ar Riyad,,SA,"('24.9204837', '46.8072362')"
43.56241,7.12777,Antibes,Provence-Alpes-Cote d'Azur,Departement des Alpes-Maritimes,FR,"('43.5811291', '7.1272314')"
24.46667,54.36667,Abu Dhabi,Abu Dhabi,,AE,"('24.420165', '54.5657685')"
26.27944,50.20833,Khobar,Eastern Province,,SA,"('26.3338586', '50.1874442')"
25.0657,55.17128,Dubai,Dubai,,AE,"('25.096005', '55.156436')"
25.33737,55.41206,Sharjah,Ash Shariqah,,AE,"('25.1925937', '55.4102158')"
25.0657,55.17128,Dubai,Dubai,,AE,"('25.193695', '55.2756227')"
44.43225,26.10626,Bucharest,Bucuresti,Municipiul Bucuresti,RO,"('44.4617666', '26.1194371')"
25.0657,55.17128,Dubai,Dubai,,AE,"('25.1587445', '55.225262')"
25.33737,55.41206,Sharjah,Ash Shariqah,,AE,"('25.3575224', '55.3874391')"
53.48095,-2.23743,Manchester,England,Manchester,GB,"('53.4838479', '-2.2452159')"
17.38405,78.45636,Hyderabad,Telangana,Hyderabad,IN,"('17.419575', '78.430826')"
13.00639,80.25417,Gandhi Nagar,Tamil Nadu,Chennai,IN,"('13.0159817', '80.2466029')"
25.33737,55.41206,Sharjah,Ash Shariqah,,AE,"('25.2246567', '55.2833893')"
22.63341,88.42286,Dam Dam,West Bengal,North 24 Parganas,IN,"('22.5723779', '88.4328781')"
36.59548,-4.56937,Benalmadena,Andalusia,Provincia de Malaga,ES,"('36.581919', '-4.538815')"
6.9371,80.6581,Talawakele,Central,,LK,"('6.9474425', '80.645612')"
25.33737,55.41206,Sharjah,Ash Shariqah,,AE,"('25.278531', '55.313779')"
29.19203,78.86145,Thakurdwara,Uttar Pradesh,Moradabad,IN,"('29.1958', '78.888')"
43.98445,2.14227,Cagnac-les-Mines,Midi-Pyrenees,Departement du Tarn,FR,"('43.9591193', '2.1609805')"
24.68773,46.72185,Riyadh,Ar Riyad,,SA,"('24.6885222', '46.6832897')"
34.39739,35.89493,Zgharta,Liban-Nord,,LB,"('34.3903067', '35.8983325')"
25.0657,55.17128,Dubai,Dubai,,AE,"('25.1970901', '55.2381063')"
24.68773,46.72185,Riyadh,Ar Riyad,,SA,"('24.736654', '46.7546938')"
25.28812,55.88157,Adh Dhayd,Ash Shariqah,,AE,"('25.1923', '55.6880001')"
37.18817,-3.60667,Granada,Andalusia,Provincia de Granada,ES,"('37.176514', '-3.6123517')"
31.54972,74.34361,Lahore,Punjab,,PK,"('31.5067254', '74.2786862')"
26.32599,43.97497,Buraydah,Al-Qassim,,SA,"('26.3651533', '43.9355643')"
45.61674,25.71101,Sacele,Brasov,Municipiul Sacele,RO,"('45.6205755', '25.6975425')"
25.33737,55.41206,Sharjah,Ash Shariqah,,AE,"('25.2512531', '55.3372315')"
25.31668,83.01041,Varanasi,Uttar Pradesh,Varanasi,IN,"('25.288617', '82.9992229')"
31.54972,74.34361,Lahore,Punjab,,PK,"('31.5749938', '74.3123392')"
25.33737,55.41206,Sharjah,Ash Shariqah,,AE,"('25.2978147', '55.382245')"
53.9953,10.77676,Timmendorfer Strand,Schleswig-Holstein,,DE,"('53.995306', '10.780713')"
25.79065,-80.13005,Miami Beach,Florida,Miami-Dade County,US,"('25.790663', '-80.140084')"
19.23496,72.85976,Borivli,Maharashtra,Mumbai Suburban,IN,"('19.2291309', '72.8523105')"
43.38417,16.55083,Supetar,Splitsko-Dalmatinska,,HR,"('43.385552', '16.547997')"
25.33737,55.41206,Sharjah,Ash Shariqah,,AE,"('25.2754061', '55.3082023')"
25.33737,55.41206,Sharjah,Ash Shariqah,,AE,"('25.2494536', '55.3516545')"
25.33737,55.41206,Sharjah,Ash Shariqah,,AE,"('25.255674', '55.3313737')"
29.33389,48.07611,As Salimiyah,Muhafazat Hawalli,,KW,"('29.3462505', '48.084666')"
48.85341,2.3488,Paris,Ile-de-France,Paris,FR,"('48.8462218', '2.3464138')"
24.46667,54.36667,Abu Dhabi,Abu Dhabi,,AE,"('24.4864431', '54.3590192')"
25.33737,55.41206,Sharjah,Ash Shariqah,,AE,"('25.3064722', '55.3788044')"
35.23417,128.88111,Kimhae,Gyeongsangnam-do,,KR,"('35.1927147', '128.8049998')"
24.9056,67.0822,Karachi,Sindh,Karachi District,PK,"('24.9072116', '67.0709934')"
51.4425,3.57361,Vlissingen,Zeeland,Gemeente Vlissingen,NL,"('51.4956652', '3.4936748')"
25.33737,55.41206,Sharjah,Ash Shariqah,,AE,"('25.2920786', '55.4447425')"
25.33737,55.41206,Sharjah,Ash Shariqah,,AE,"('25.2342045', '55.311513')"
69.6489,18.95508,Tromso,Troms,Tromso,NO,"('69.654213', '18.9606992')"
33.88894,35.49442,Beirut,Beyrouth,,LB,"('33.88351', '35.5040939')"
42.26259,-71.80229,Worcester,Massachusetts,Worcester County,US,"('42.2647738', '-71.819442')"
36.6532,44.54407,Soran,Arbil,,IQ,"('36.708642', '44.392653')"
46.94227,8.2718,Alpnach,Obwalden,Obwalden,CH,"('46.9794705', '8.2548011')"
37.86289,23.75802,Glyfada,Attica,Nomarchia Athinas,GR,"('37.8640589', '23.7491714')"
-32.83369,-70.59827,Los Andes,Valparaiso,Provincia de Los Andes,CL,"('-32.8270052', '-70.6077042')"
25.33737,55.41206,Sharjah,Ash Shariqah,,AE,"('25.2460644', '55.5434661')"
25.0657,55.17128,Dubai,Dubai,,AE,"('25.0051416', '55.1654215')"
36.19257,44.01062,Erbil,Arbil,,IQ,"('36.2145466', '43.9937576')"
-5.72651,39.2987,Nungwi,Zanzibar North,,TZ,"('-5.749608', '39.2902422')"
25.0657,55.17128,Dubai,Dubai,,AE,"('25.07129', '55.130505')"
19.23496,72.85976,Borivli,Maharashtra,Mumbai Suburban,IN,"('19.2210312', '72.8523326')"
31.54972,74.34361,Lahore,Punjab,,PK,"('31.5153878', '74.3520511')"
29.14583,48.09472,Ar Riqqah,Al Ahmadi,,KW,"('29.1447406', '48.1009004')"
30.12303,31.13571,Awsim,Al Jizah,,EG,"('30.0054851', '30.9727097')"
47.50369,19.06583,Budapest VI. keruelet,Budapest,,HU,"('47.508183', '19.056732')"
25.0657,55.17128,Dubai,Dubai,,AE,"('25.1524304', '55.1986901')"
51.50853,-0.12574,London,England,Greater London,GB,"('51.5143352', '-0.1218946')"
25.0657,55.17128,Dubai,Dubai,,AE,"('25.097015', '55.157643')"
25.33737,55.41206,Sharjah,Ash Shariqah,,AE,"('25.3083274', '55.3394517')"
18.43997,73.77545,Kharakvasla,Maharashtra,Pune Division,IN,"('18.492213', '73.734974')"
33.89056,35.56639,Jdaidet el Matn,Mont-Liban,,LB,"('33.9021261', '35.5745818')"
21.42664,39.82563,Mecca,Makkah,,SA,"('21.5093495', '39.7803275')"
25.0657,55.17128,Dubai,Dubai,,AE,"('25.0956', '55.1668')"
25.33737,55.41206,Sharjah,Ash Shariqah,,AE,"('25.2988659', '55.3510238')"
25.33737,55.41206,Sharjah,Ash Shariqah,,AE,"('25.253595', '55.332931')"
30.97531,41.03808,'Ar'ar,Northern Borders,,SA,"('30.955697', '40.999042')"
40.08867,-82.91657,Huber Ridge,Ohio,Franklin County,US,"('40.0530885', '-82.9151849')"
25.33737,55.41206,Sharjah,Ash Shariqah,,AE,"('25.2686444', '55.3177795')"
40.30571,-3.73295,Getafe,Madrid,Provincia de Madrid,ES,"('40.316887', '-3.7414685')"
25.0657,55.17128,Dubai,Dubai,,AE,"('25.1232661', '55.221734')"
28.55221,70.46837,Kot Samaba,Punjab,,PK,"('28.4227429', '70.306921')"
61.34817,16.39464,Bollnas,Gaevleborg,Bollnas Kommun,SE,"('61.3773694', '16.3886735')"
21.54238,39.19797,Jeddah,Makkah,,SA,"('21.4455144', '39.2043559')"
25.0657,55.17128,Dubai,Dubai,,AE,"('25.0970478', '55.1504203')"
25.33737,55.41206,Sharjah,Ash Shariqah,,AE,"('25.2620412', '55.324604')"
-0.33405,-78.45217,Sangolqui,Pichincha,,EC,"('-0.2684475', '-78.3468445')"
51.75,19.46667,Lodz,Lodz Voivodeship,,PL,"('51.7795602', '19.444809')"
51.45523,-2.59665,Bristol,England,Bristol,GB,"('51.4548329', '-2.6209847')"
25.33737,55.41206,Sharjah,Ash Shariqah,,AE,"('25.2706424', '55.320027')"
25.11641,56.34141,Al Fujayrah,Al Fujayrah,,AE,"('25.122139', '56.348378')"
35.7214,51.109,Shahr-e Qods,Tehran,,IR,"('35.7085391', '51.2552239')"
-26.08909,28.16534,Modderfontein,Gauteng,City of Johannesburg Metropolitan Municipality,ZA,"('-26.0826945', '28.0605467')"
25.41111,55.43504,Ajman,Ajman,,AE,"('25.3961514', '55.4229087')"
-20.10389,57.57028,Pamplemousses,Pamplemousses,,MU,"('-20.1047127', '57.5803257')"
25.33737,55.41206,Sharjah,Ash Shariqah,,AE,"('25.2975255', '55.372578')"
60.16952,24.93545,Helsinki,Uusimaa,Helsinki,FI,"('60.1670184', '24.9364842')"
48.79954,9.06316,Gerlingen,Baden-Wuerttemberg,Regierungsbezirk Stuttgart,DE,"('48.8065057', '9.0713658')"
25.78953,55.9432,Ras al-Khaimah,Ra's al Khaymah,,AE,"('25.7931804', '55.948677')"
25.33737,55.41206,Sharjah,Ash Shariqah,,AE,"('25.2480588', '55.3209938')"
25.0657,55.17128,Dubai,Dubai,,AE,"('25.0459292', '55.1388812')"
25.33737,55.41206,Sharjah,Ash Shariqah,,AE,"('25.2016045', '55.3770979')"
21.42664,39.82563,Mecca,Makkah,,SA,"('21.4038317', '39.8734429')"
17.48486,78.41376,Kukatpalli,Telangana,Rangareddi,IN,"('17.4419542', '78.3767388')"
25.0657,55.17128,Dubai,Dubai,,AE,"('25.2013092', '55.2695622')"
29.34722,47.96167,Ash Shamiyah,Al Asimah,,KW,"('29.3327041', '47.9466065')"
25.33737,55.41206,Sharjah,Ash Shariqah,,AE,"('25.2956976', '55.372504')"
56.8519,60.6122,Yekaterinburg,Sverdlovsk,,RU,"('56.8671837', '60.5483688')"
45.46611,16.37833,Sisak,Sisacko-Moslavacka,Grad Sisak,HR,"('45.4706163', '16.3858156')"
18.5635,73.85205,Khadki,Maharashtra,Pune Division,IN,"('18.5552204', '73.7999886')"
-17.82772,31.05337,Harare,Harare,,ZW,"('-17.8019112', '31.0961148')"
42.3751,-71.10561,Cambridge,Massachusetts,Middlesex County,US,"('42.3739525', '-71.1130795')"
25.33737,55.41206,Sharjah,Ash Shariqah,,AE,"('25.2460033', '55.3111635')"
26.91962,75.78781,Jaipur,Rajasthan,Jaipur,IN,"('26.9015479', '75.7721063')"
50.58907,5.86241,Verviers,Wallonia,Province de Liege,BE,"('50.5939858', '5.8453469')"
12.97194,77.59369,Bangalore,Karnataka,Bangalore Urban,IN,"('12.9728049', '77.6075627')"
24.68773,46.72185,Riyadh,Ar Riyad,,SA,"('24.6384911', '46.7186144')"
25.33737,55.41206,Sharjah,Ash Shariqah,,AE,"('25.2221799', '55.3529095')"
25.0657,55.17128,Dubai,Dubai,,AE,"('25.174147', '55.2554607')"
25.33737,55.41206,Sharjah,Ash Shariqah,,AE,"('25.3239694', '55.3806039')"
35.23417,128.88111,Kimhae,Gyeongsangnam-do,,KR,"('35.2112899', '128.8504043')"
51.6128,-0.27539,Edgware,England,Greater London,GB,"('51.5929624', '-0.285936')"
40.41831,-3.70275,City Center,Madrid,Provincia de Madrid,ES,"('40.420441', '-3.701066')"
47.50369,19.06583,Budapest VI. keruelet,Budapest,,HU,"('47.515792', '19.0590174')"
25.0657,55.17128,Dubai,Dubai,,AE,"('25.0403021', '55.2184623')"
25.0657,55.17128,Dubai,Dubai,,AE,"('25.0385825', '55.1816054')"
39.46975,-0.37739,Valencia,Valencia,Provincia de Valencia,ES,"('39.4600142', '-0.3708134')"
34.008,71.57849,Peshawar,Khyber Pakhtunkhwa,,PK,"('34.0067943', '71.5710827')"
-33.79798,151.28826,Manly,New South Wales,Manly Vale,AU,"('-33.7930688', '151.285802')"
-25.98953,28.12843,Midrand,Gauteng,City of Johannesburg Metropolitan Municipality,ZA,"('-25.9843026', '28.0750437')"
36.75278,-3.8744,Nerja,Andalusia,Provincia de Malaga,ES,"('36.7444677', '-3.9015529')"
41.38879,2.15899,Barcelona,Catalonia,Provincia de Barcelona,ES,"('41.3844106', '2.1528626')"
25.33737,55.41206,Sharjah,Ash Shariqah,,AE,"('25.2683979', '55.3136135')"
25.0657,55.17128,Dubai,Dubai,,AE,"('25.0877224', '55.1465053')"
6.50153,3.35808,Surulere,Lagos,,NG,"('6.4919354', '3.365077')"
25.0657,55.17128,Dubai,Dubai,,AE,"('25.1191356', '55.2028244')"
40.43404,-3.70379,Chamberi,Madrid,Provincia de Madrid,ES,"('40.4487168', '-3.6958516')"
25.33737,55.41206,Sharjah,Ash Shariqah,,AE,"('25.2117336', '55.2829628')"
44.42802,26.09665,Bucuresti,Bucuresti,Municipiul Bucuresti,RO,"('44.4300953', '26.0993389')"
24.46667,54.36667,Abu Dhabi,Abu Dhabi,,AE,"('24.4894155', '54.6086246')"
41.38022,2.17319,Ciutat Vella,Catalonia,Provincia de Barcelona,ES,"('41.383817', '2.169634')"
31.95522,35.94503,Amman,Amman,,JO,"('31.952836', '35.932353')"
23.07041,72.65702,Naroda,Gujarat,Ahmadabad,IN,"('23.0615617', '72.6439116')"
35.22806,128.68111,Changwon,Gyeongsangnam-do,,KR,"('35.252864', '128.7510703')"
41.38022,2.17319,Ciutat Vella,Catalonia,Provincia de Barcelona,ES,"('41.3943873', '2.1883175')"
25.0657,55.17128,Dubai,Dubai,,AE,"('25.0379192', '55.2532914')"
52.22977,21.01178,Warsaw,Masovian Voivodeship,Warszawa,PL,"('52.2325109', '21.014325')"
29.295,47.93306,Ar Rabiyah,Al Asimah,,KW,"('29.3106929', '47.9275413')"
25.33737,55.41206,Sharjah,Ash Shariqah,,AE,"('25.1579995', '55.407831')"
51.54057,-0.14334,Camden Town,England,Greater London,GB,"('51.5413211', '-0.1467597')"
40.77955,-74.02375,Union City,New Jersey,Hudson County,US,"('40.7826376', '-74.0207903')"
51.48619,-0.3083,Brentford,England,Greater London,GB,"('51.4968393', '-0.3124995')"
-23.52278,-46.18833,Mogi das Cruzes,Sao Paulo,Mogi das Cruzes,BR,"('-23.5166231', '-46.1910147')"
25.33737,55.41206,Sharjah,Ash Shariqah,,AE,"('25.2730775', '55.3012417')"
-8.4889,115.5935,Banjar Bugbug,Bali,,ID,"('-8.5014083', '115.6105404')"
25.0657,55.17128,Dubai,Dubai,,AE,"('25.141317', '55.185479')"
24.46667,54.36667,Abu Dhabi,Abu Dhabi,,AE,"('24.344088', '54.497853')"
51.31667,7.61667,Nachrodt-Wiblingwerde,North Rhine-Westphalia,Regierungsbezirk Arnsberg,DE,"('51.2713414', '7.6009787')"
20.01288,41.46767,Al Bahah,Mintaqat al Bahah,,SA,"('19.8616874', '41.5739843')"
40.41831,-3.70275,City Center,Madrid,Provincia de Madrid,ES,"('40.420617', '-3.7007847')"
25.78953,55.9432,Ras al-Khaimah,Ra's al Khaymah,,AE,"('25.7379557', '55.8930446')"
21.54238,39.19797,Jeddah,Makkah,,SA,"('21.5613684', '39.1607901')"
50.72048,-1.8795,Bournemouth,England,Bournemouth,GB,"('50.725247', '-1.844194')"
-8.736,115.4945,Pondokkaha Kelod,Bali,,ID,"('-8.750898', '115.4740437')"
25.0657,55.17128,Dubai,Dubai,,AE,"('25.1969484', '55.2767758')"
25.33737,55.41206,Sharjah,Ash Shariqah,,AE,"('25.2473365', '55.3003284')"
24.9056,67.0822,Karachi,Sindh,Karachi District,PK,"('24.9291464', '67.0973183')"
28.55221,70.46837,Kot Samaba,Punjab,,PK,"('28.4141453', '70.3185588')"
30.21035,31.36812,Al Khankah,Muhafazat al Qalyubiyah,,EG,"('30.0604551', '31.4187594')"
32.02581,35.86458,Al Jubayhah,Amman,,JO,"('31.9770744', '35.8642762')"
12.97194,77.59369,Bangalore,Karnataka,Bangalore Urban,IN,"('12.9666541', '77.7175866')"
27.57417,91.92437,Tawang,Arunachal Pradesh,Tawang,IN,"('27.5860574', '91.8594062')"
24.68773,46.72185,Riyadh,Ar Riyad,,SA,"('24.831433', '46.60463')"
25.27932,51.52245,Doha,Baladiyat ad Dawhah,,QA,"('25.2955289', '51.5391589')"
18.5635,73.85205,Khadki,Maharashtra,Pune Division,IN,"('18.5619466', '73.8069134')"
25.33737,55.41206,Sharjah,Ash Shariqah,,AE,"('25.2421361', '55.2973646')"
26.43442,50.10326,Dammam,Eastern Province,,SA,"('26.4151028', '50.1702871')"
51.50853,-0.12574,London,England,Greater London,GB,"('51.5101687', '-0.1291563')"
19.76616,74.47738,Shirdi,Maharashtra,Ahmadnagar,IN,"('19.7852584', '74.4703314')"
26.27944,50.20833,Khobar,Eastern Province,,SA,"('26.3087683', '50.1929366')"
25.0657,55.17128,Dubai,Dubai,,AE,"('25.0663378', '55.1376257')"
34.22834,-118.53675,Northridge,California,Los Angeles County,US,"('34.162554', '-118.5175556')"
25.60222,85.11936,Patna,Bihar,Patna,IN,"('25.6039791', '85.1285522')"
30.19556,71.47528,Multan,Punjab,,PK,"('30.2034615', '71.4613825')"
25.33737,55.41206,Sharjah,Ash Shariqah,,AE,"('25.2731022', '55.3096242')"
-29.8579,31.0292,Durban,KwaZulu-Natal,eThekwini Metropolitan Municipality,ZA,"('-29.7773978', '31.0447352')"
31.54972,74.34361,Lahore,Punjab,,PK,"('31.5157209', '74.3427901')"
-4.05466,39.66359,Mombasa,Mombasa,,KE,"('-4.0026149', '39.7049421')"
25.33737,55.41206,Sharjah,Ash Shariqah,,AE,"('25.2973188', '55.3837756')"
25.0657,55.17128,Dubai,Dubai,,AE,"('25.0749776', '55.1456771')"
24.68773,46.72185,Riyadh,Ar Riyad,,SA,"('24.7004488', '46.6820612')"
33.88894,35.49442,Beirut,Beyrouth,,LB,"('33.8954361', '35.4931715')"
38.29714,-122.28553,Napa,California,Napa County,US,"('38.3009457', '-122.2816617')"
25.0657,55.17128,Dubai,Dubai,,AE,"('25.1034842', '55.1630228')"
41.85003,-87.65005,Chicago,Illinois,Cook County,US,"('41.8892836', '-87.6252144')"
25.33737,55.41206,Sharjah,Ash Shariqah,,AE,"('25.243418', '55.3061286')"
52.37403,4.88969,Amsterdam,North Holland,Gemeente Amsterdam,NL,"('52.35984', '4.8642249')"
25.33737,55.41206,Sharjah,Ash Shariqah,,AE,"('25.2301136', '55.2721229')"
29.42412,-98.49363,San Antonio,Texas,Bexar County,US,"('29.4135824', '-98.4908759')"
25.33737,55.41206,Sharjah,Ash Shariqah,,AE,"('25.344268', '55.3864222')"
39.5,-0.35,Alboraya,Valencia,Provincia de Valencia,ES,"('39.4737461', '-0.3446344')"
51.9,-2.08333,Cheltenham,England,Gloucestershire,GB,"('51.8991204', '-2.0738141')"
39.82219,-7.49087,Castelo Branco,Castelo Branco,Castelo Branco,PT,"('39.752312', '-7.56959')"
24.9056,67.0822,Karachi,Sindh,Karachi District,PK,"('24.802162', '67.029905')"
34.98619,-84.37131,McCaysville,Georgia,Fannin County,US,"('34.9878795', '-84.3691093')"
35.8044,51.4256,Tajrish,Tehran,,IR,"('35.7785414', '51.3603179')"
21.54238,39.19797,Jeddah,Makkah,,SA,"('21.439747', '39.2702249')"
11.93381,79.82979,Puducherry,Pondicherry,Puducherry,IN,"('11.934743', '79.8309271')"
41.55032,-8.42005,Braga,Braga,Braga,PT,"('41.547987', '-8.4125541')"
24.1469,120.6839,Taichung,Taiwan,Taichung City,TW,"('24.1372678', '120.6708838')"
52.37403,4.88969,Amsterdam,North Holland,Gemeente Amsterdam,NL,"('52.3794397', '4.8936196')"
37.77493,-122.41942,San Francisco,California,San Francisco County,US,"('37.8005599', '-122.4366992')"
52.37403,4.88969,Amsterdam,North Holland,Gemeente Amsterdam,NL,"('52.366477', '4.893414')"
53.99078,-1.5373,Harrogate,England,North Yorkshire,GB,"('53.992', '-1.5501')"
35.24417,129.21389,Kijang,Busan,,KR,"('35.1691235', '129.1766478')"
21.54238,39.19797,Jeddah,Makkah,,SA,"('21.1147335', '39.3372364')"
51.50853,-0.12574,London,England,Greater London,GB,"('51.5144552', '-0.1362781')"
60.16952,24.93545,Helsinki,Uusimaa,Helsinki,FI,"('60.1694794', '24.9522867')"
25.33737,55.41206,Sharjah,Ash Shariqah,,AE,"('25.2488545', '55.2834077')"
24.68773,46.72185,Riyadh,Ar Riyad,,SA,"('24.7150425', '46.6790226')"
33.80528,35.6,Aaley,Mont-Liban,,LB,"('33.812447', '35.6093261')"
25.33737,55.41206,Sharjah,Ash Shariqah,,AE,"('25.2739402', '55.3261097')"
35.23417,128.88111,Kimhae,Gyeongsangnam-do,,KR,"('35.2618925', '128.872276')"
25.56473,55.55517,Umm al Qaywayn,Umm al Qaywayn,,AE,"('25.5849533', '55.5760544')"
25.33737,55.41206,Sharjah,Ash Shariqah,,AE,"('25.2468854', '55.3012799')"
50.84833,5.68889,Maastricht,Limburg,Gemeente Maastricht,NL,"('50.848729', '5.690056')"
37.566,126.9784,Seoul,Seoul,,KR,"('37.5124447', '127.0587905')"
24.46667,54.36667,Abu Dhabi,Abu Dhabi,,AE,"('24.4339728', '54.4159055')"
27.49658,77.46263,Govardhan,Uttar Pradesh,Mathura,IN,"('27.5082461', '77.4715811')"
51.8425,5.85278,Nijmegen,Gelderland,Gemeente Nijmegen,NL,"('51.8469043', '5.8639108')"
32.90122,73.75591,Sarai Alamgir,Punjab,Gujrat District,PK,"('32.906178', '73.7318934')"
16.80528,96.15611,Yangon,Yangon,,MM,"('16.7827053', '96.1586757')"
21.42664,39.82563,Mecca,Makkah,,SA,"('21.4258006', '39.7852278')"
25.0657,55.17128,Dubai,Dubai,,AE,"('25.0239834', '55.1578779')"
25.0657,55.17128,Dubai,Dubai,,AE,"('25.1523651', '55.2280076')"
40.94918,17.29717,Monopoli,Apulia,Provincia di Bari,IT,"('40.9586038', '17.2698473')"
25.33737,55.41206,Sharjah,Ash Shariqah,,AE,"('25.3297294', '55.3758559')"
26.27944,50.20833,Khobar,Eastern Province,,SA,"('26.158886', '50.19396')"
48.89672,2.25666,Courbevoie,Ile-de-France,Departement des Hauts-de-Seine,FR,"('48.8860068', '2.2577069')"
52.24424,21.08545,Praga Poludnie,Masovian Voivodeship,Warszawa,PL,"('52.2351979', '21.1279412')"
21.0245,105.84117,Hanoi,Ha Noi,,VN,"('21.0302555', '105.8412048')"
25.0657,55.17128,Dubai,Dubai,,AE,"('25.194726', '55.276836')"
43.55135,7.01275,Cannes,Provence-Alpes-Cote d'Azur,Departement des Alpes-Maritimes,FR,"('43.5504829', '7.0119231')"
44.84306,20.40111,Zemun,Central Serbia,Belgrade,RS,"('44.8127871', '20.3893536')"
21.42664,39.82563,Mecca,Makkah,,SA,"('21.3771025', '39.7850368')"
0.31628,32.58219,Kampala,Central Region,Kampala District,UG,"('0.312295', '32.5797511')"
37.77493,-122.41942,San Francisco,California,San Francisco County,US,"('37.76904', '-122.4835193')"
26.72918,33.93651,Bur Safajah,Red Sea,,EG,"('26.8462813', '33.9970316')"
50.87481,8.02431,Siegen,North Rhine-Westphalia,Regierungsbezirk Arnsberg,DE,"('50.8689536', '8.0458941')"
8.17731,77.43437,Nagercoil,Tamil Nadu,Kanniyakumari,IN,"('8.1779921', '77.4365528')"
22.29941,73.20812,Vadodara,Gujarat,Vadodara,IN,"('22.2985862', '73.2046106')"
43.78685,11.72353,Pratovecchio,Tuscany,Province of Arezzo,IT,"('43.7862906', '11.7209942')"
34.69374,135.50218,Osaka-shi,Osaka,,JP,"('34.7004024', '135.4962738')"
23.55563,58.3989,Bawshar,Muhafazat Masqat,,OM,"('23.6163834', '58.4616406')"
31.83269,70.9024,Dera Ismail Khan,Khyber Pakhtunkhwa,,PK,"('31.8384553', '70.9061748')"
35.69439,51.42151,Tehran,Tehran,,IR,"('35.7192157', '51.4046323')"
52.41426,-1.78094,Solihull,England,Solihull,GB,"('52.414114', '-1.777045')"
25.61955,56.27291,Dibba Al-Hisn,Al Fujayrah,,AE,"('25.585923', '56.355752')"
31.95522,35.94503,Amman,Amman,,JO,"('31.9790958', '35.9332478')"
62.24147,25.72088,Jyvaeskylae,Central Finland,Jyvaeskylae,FI,"('62.2437048', '25.7474686')"
12.97194,77.59369,Bangalore,Karnataka,Bangalore Urban,IN,"('12.924045', '77.6716745')"
37.75556,128.89611,Kang-neung,Gangwon-do,,KR,"('37.893288', '128.829463')"
11.61056,76.08222,Kalpetta,Kerala,Wayanad,IN,"('11.452153', '76.101901')"
58.53706,15.03649,Motala,OEstergoetland,Motala Kommun,SE,"('58.5575257', '15.0315878')"
41.35967,2.10028,L'Hospitalet de Llobregat,Catalonia,Provincia de Barcelona,ES,"('41.3563553', '2.1231146')"
25.33737,55.41206,Sharjah,Ash Shariqah,,AE,"('25.252502', '55.28846')"
25.0657,55.17128,Dubai,Dubai,,AE,"('25.0778247', '55.1461794')"
43.31195,-1.90234,Errenteria,Basque Country,Provincia de Guipuzcoa,ES,"('43.300387', '-1.882802')"
25.0657,55.17128,Dubai,Dubai,,AE,"('25.0744878', '55.1322005')"
28.58,77.33,Noida,Uttar Pradesh,Gautam Buddha Nagar,IN,"('28.5721625', '77.386323')"
34.3827,8.15549,Ar Rudayyif,Gafsa,,TN,"('34.4916114', '8.2702428')"
25.41111,55.43504,Ajman,Ajman,,AE,"('25.3698219', '55.4816655')"
25.0657,55.17128,Dubai,Dubai,,AE,"('25.0753602', '55.1321855')"
24.46667,54.36667,Abu Dhabi,Abu Dhabi,,AE,"('24.3440329', '54.4626463')"
39.65417,66.95972,Samarqand,Samarqand,,UZ,"('39.6560459', '66.9844172')"
51.86663,17.60336,Dobrzyca,Greater Poland Voivodeship,Powiat pleszewski,PL,"('51.8641763', '17.6079079')"
28.58,77.33,Noida,Uttar Pradesh,Gautam Buddha Nagar,IN,"('28.6594777', '77.3166771')"
0.31628,32.58219,Kampala,Central Region,Kampala District,UG,"('0.2872777', '32.6074979')"
33.90836,73.3903,Murree,Punjab,,PK,"('34.0685719', '73.3922969')"
57.91944,59.965,Nizhniy Tagil,Sverdlovsk,,RU,"('57.9831514', '59.8530911')"
50.85045,4.34878,Brussels,Brussels Capital,Bruxelles-Capitale,BE,"('50.8488477', '4.3660316')"
41.85003,-87.65005,Chicago,Illinois,Cook County,US,"('41.8921331', '-87.6245096')"
50.93333,6.95,Koeln,North Rhine-Westphalia,Regierungsbezirk Koln,DE,"('50.937014', '6.948343')"
46.477,8.80125,Faido,Ticino,Leventina District,CH,"('46.586679', '8.8010382')"
25.41111,55.43504,Ajman,Ajman,,AE,"('25.3937741', '55.4659754')"
24.68773,46.72185,Riyadh,Ar Riyad,,SA,"('24.7524986', '46.6753034')"
50.59412,27.6165,Novohrad-Volyns'kyy,Zhytomyr,,UA,"('50.58761', '27.6056779')"
10.87655,76.30932,Cherpulassery,Kerala,Palakkad district,IN,"('10.9920802', '76.23243')"
24.46667,54.36667,Abu Dhabi,Abu Dhabi,,AE,"('24.3718968', '54.5088185')"
21.42664,39.82563,Mecca,Makkah,,SA,"('21.412494', '39.8248177')"
25.0657,55.17128,Dubai,Dubai,,AE,"('25.0477529', '55.130108')"
14.55027,121.03269,Makati City,Metro Manila,Makati City,PH,"('14.5668656', '121.013322')"
25.0657,55.17128,Dubai,Dubai,,AE,"('25.078021', '55.153907')"
25.33737,55.41206,Sharjah,Ash Shariqah,,AE,"('25.1718492', '55.3528138')"
51.6128,-0.27539,Edgware,England,Greater London,GB,"('51.591964', '-0.2847118')"
25.0657,55.17128,Dubai,Dubai,,AE,"('25.0806384', '55.1404276')"
25.0657,55.17128,Dubai,Dubai,,AE,"('25.2120634', '55.2478855')"
40.53259,44.72025,Tsaghkadzor,Kotayk'i Marz,,AM,"('40.5335273', '44.7053439')"
41.27794,1.97033,Castelldefels,Catalonia,Provincia de Barcelona,ES,"('41.2820331', '1.989286')"
40.42972,-3.67975,Salamanca,Madrid,Provincia de Madrid,ES,"('40.4343598', '-3.6746949')"
0.32467,32.5747,Kampala Central Division,Central Region,,UG,"('0.3451499', '32.5964094')"
34.1389,-118.35341,Universal City,California,Los Angeles County,US,"('34.1400389', '-118.368055')"
52.51559,13.45482,Friedrichshain Bezirk,Berlin,,DE,"('52.515935', '13.440066')"
34.69374,135.50218,Osaka-shi,Osaka,,JP,"('34.645829', '135.513587')"
14.20463,101.21295,Nakhon Nayok,Nakhon Nayok,,TH,"('14.3356255', '101.3061883')"
31.21564,29.95527,Alexandria,Alexandria,,EG,"('31.1962196', '29.8978835')"
23.9065,42.91724,`Afif,Ar Riyad,,SA,"('22.7554385', '43.7908453')"
25.78953,55.9432,Ras al-Khaimah,Ra's al Khaymah,,AE,"('25.811023', '55.964471')"
38.71446,-9.2422,Linda-a-Velha,Lisbon,Oeiras,PT,"('38.7052117', '-9.256594')"
10.87655,76.30932,Cherpulassery,Kerala,Palakkad district,IN,"('10.9696803', '76.2267747')"
45.35,25.55,Sinaia,Prahova,Oras Sinaia,RO,"('45.3524719', '25.5437674')"
37.97945,23.71622,Athens,Attica,Nomarchia Athinas,GR,"('37.9749098', '23.7312244')"
25.0657,55.17128,Dubai,Dubai,,AE,"('25.0747985', '55.1336385')"
24.68773,46.72185,Riyadh,Ar Riyad,,SA,"('24.7301254', '46.6710645')"
5.94851,80.53528,Matara,Southern,,LK,"('5.9442394', '80.5243937')"
41.37263,2.1546,Sants-Montjuic,Catalonia,Provincia de Barcelona,ES,"('41.3640002', '2.1674931')"
33.88894,35.49442,Beirut,Beyrouth,,LB,"('33.8960626', '35.5164181')"
17.49174,78.82302,Gudur,Telangana,Nalgonda,IN,"('17.3683503', '78.8978007')"
25.33737,55.41206,Sharjah,Ash Shariqah,,AE,"('25.3437602', '55.3896363')"
28.58,77.33,Noida,Uttar Pradesh,Gautam Buddha Nagar,IN,"('28.6613473', '77.3144284')"
41.89193,12.51133,Rome,Latium,Citta metropolitana di Roma Capitale,IT,"('41.9031941', '12.5045889')"
33.6007,73.0679,Rawalpindi,Punjab,,PK,"('33.5242527', '73.1480858')"
25.33737,55.41206,Sharjah,Ash Shariqah,,AE,"('25.2671929', '55.3180858')"
50.59833,4.32848,Nivelles,Wallonia,Province du Brabant Wallon,BE,"('50.5535611', '4.3132651')"
32.02581,35.86458,Al Jubayhah,Amman,,JO,"('32.0484307', '35.8730797')"
40.18111,44.51361,Yerevan,Yerevan,,AM,"('40.1911065', '44.5156219')"
25.33737,55.41206,Sharjah,Ash Shariqah,,AE,"('25.1727739', '55.3997038')"
24.80361,120.96861,Hsinchu,Taiwan,Hsinchu,TW,"('24.8115568', '120.9560076')"
21.42664,39.82563,Mecca,Makkah,,SA,"('21.4225486', '39.8202768')"
33.88894,35.49442,Beirut,Beyrouth,,LB,"('33.8713749', '35.4866356')"
58.9125,11.92534,Ed,Vaestra Goetaland,Dals-Ed Kommun,SE,"('58.9123672', '11.9317901')"
11.24802,75.7804,Kozhikode,Kerala,Kozhikode,IN,"('11.2961952', '75.7898349')"
24.46667,54.36667,Abu Dhabi,Abu Dhabi,,AE,"('24.4135675', '54.4739785')"
25.33737,55.41206,Sharjah,Ash Shariqah,,AE,"('25.3167972', '55.3839908')"
25.0657,55.17128,Dubai,Dubai,,AE,"('25.1254562', '55.1542545')"
24.46667,54.36667,Abu Dhabi,Abu Dhabi,,AE,"('24.4988837', '54.3807356')"
25.33737,55.41206,Sharjah,Ash Shariqah,,AE,"('25.3032838', '55.377626')"
35.18147,136.90641,Nagoya-shi,Aichi,,JP,"('35.1700876', '136.8795672')"
25.0657,55.17128,Dubai,Dubai,,AE,"('25.0750619', '55.1397715')"
24.46667,54.36667,Abu Dhabi,Abu Dhabi,,AE,"('24.455058', '54.39467')"
25.33737,55.41206,Sharjah,Ash Shariqah,,AE,"('25.1898289', '55.4044685')"
51.53622,-0.10304,Islington,England,Greater London,GB,"('51.536813', '-0.1036553')"
25.0657,55.17128,Dubai,Dubai,,AE,"('25.1842697', '55.2545766')"
55.73165,12.36328,Ballerup,Capital Region,Ballerup Kommune,DK,"('55.731178', '12.361003')"
13.71669,100.57159,Khlong Toei,Bangkok,,TH,"('13.7379302', '100.5604723')"
25.0657,55.17128,Dubai,Dubai,,AE,"('25.1085446', '55.1834655')"
12.97194,77.59369,Bangalore,Karnataka,Bangalore Urban,IN,"('12.9244558', '77.6846251')"
24.9056,67.0822,Karachi,Sindh,Karachi District,PK,"('24.794427', '67.048426')"
24.68773,46.72185,Riyadh,Ar Riyad,,SA,"('24.7239523', '46.8094714')"
25.0657,55.17128,Dubai,Dubai,,AE,"('25.0799405', '55.1444799')"
48.15221,11.61585,Bogenhausen,Bavaria,Upper Bavaria,DE,"('48.176999', '11.593035')"
60.16952,24.93545,Helsinki,Uusimaa,Helsinki,FI,"('60.1800728', '24.951193')"
25.0657,55.17128,Dubai,Dubai,,AE,"('25.1902062', '55.284565')"
40.99649,-74.10125,Ho-Ho-Kus,New Jersey,Bergen County,US,"('40.9971508', '-74.1089587')"
21.54238,39.19797,Jeddah,Makkah,,SA,"('21.4472532', '39.2068456')"
25.33737,55.41206,Sharjah,Ash Shariqah,,AE,"('25.2297775', '55.3236413')"
25.0657,55.17128,Dubai,Dubai,,AE,"('25.1126103', '55.1930058')"
24.46667,54.36667,Abu Dhabi,Abu Dhabi,,AE,"('24.4184077', '54.4405039')"
53.535,10.04082,Rothenburgsort,Hamburg,,DE,"('53.4973', '10.08089')"
11.04019,76.08237,Malappuram,Kerala,Malappuram,IN,"('11.0515021', '76.0697399')"
28.43905,48.49132,Al Khafji,Eastern Province,,SA,"('28.7313179', '48.2845688')"
9.02165,76.93265,Punalur,Kerala,Kollam,IN,"('8.9259771', '76.9158613')"
29.33278,48.02861,Hawalli,Muhafazat Hawalli,,KW,"('29.34023', '48.0084687')"
10.31745,123.919,Baugo,Central Visayas,Cebu City,PH,"('10.3112522', '123.917669')"
52.51667,13.36667,Tiergarten Bezirk,Berlin,,DE,"('52.5162746', '13.3777041')"
24.68773,46.72185,Riyadh,Ar Riyad,,SA,"('24.7277175', '46.6892579')"
19.07283,72.88261,Mumbai,Maharashtra,Mumbai Suburban,IN,"('19.1110324', '72.8279253')"
24.46667,54.36667,Abu Dhabi,Abu Dhabi,,AE,"('24.488056', '54.356389')"
14.55027,121.03269,Makati City,Metro Manila,Makati City,PH,"('14.5645198', '121.0292122')"
12.97194,77.59369,Bangalore,Karnataka,Bangalore Urban,IN,"('12.9746722', '77.6058253')"
25.0657,55.17128,Dubai,Dubai,,AE,"('25.099635', '55.313417')"
33.6103,-117.72533,Laguna Woods,California,Orange County,US,"('33.6526463', '-117.7456517')"
25.33737,55.41206,Sharjah,Ash Shariqah,,AE,"('25.2740893', '55.3297133')"
45.79659,6.96893,Courmayeur,Aosta Valley,Valle d'Aosta,IT,"('45.81198', '6.960325')"
25.33737,55.41206,Sharjah,Ash Shariqah,,AE,"('25.205374', '55.344208')"
52.33574,-2.05983,Bromsgrove,England,Worcestershire,GB,"('52.3021982', '-2.1048018')"
28.55221,70.46837,Kot Samaba,Punjab,,PK,"('28.4288941', '70.3260102')"
24.46667,54.36667,Abu Dhabi,Abu Dhabi,,AE,"('24.4882897', '54.3949423')"
50.91433,-1.26984,Botley,England,Hampshire,GB,"('50.9126258', '-1.2614414')"
25.33737,55.41206,Sharjah,Ash Shariqah,,AE,"('25.2758678', '55.3232238')"
25.33737,55.41206,Sharjah,Ash Shariqah,,AE,"('25.2511594', '55.3090423')"
50.85045,4.34878,Brussels,Brussels Capital,Bruxelles-Capitale,BE,"('50.8364019', '4.3604651')"
44.68315,-73.50295,Plattsburgh West,New York,Clinton County,US,"('44.696744', '-73.483421')"
16.48531,80.66746,Yanamalakuduru,Andhra Pradesh,Krishna,IN,"('16.5003201', '80.6481679')"
26.43442,50.10326,Dammam,Eastern Province,,SA,"('26.4368498', '50.1291857')"
21.97473,96.08359,Mandalay,Mandalay,,MM,"('22.0067314', '96.1022186')"
35.24417,129.21389,Kijang,Busan,,KR,"('35.1609872', '129.1591197')"
10.5943,76.0411,Guruvayur,Kerala,Thrissur District,IN,"('10.595967', '76.039961')"
10.6484,76.07063,Kunnamkulam,Kerala,Thrissur District,IN,"('10.6208014', '76.1120592')"
17.01505,54.09237,Salalah,Zufar,,OM,"('17.0008793', '54.1012845')"
11.00555,76.96612,Coimbatore,Tamil Nadu,Coimbatore,IN,"('11.0177074', '76.9663528')"
-33.92584,18.42322,Cape Town,Western Cape,City of Cape Town,ZA,"('-33.9486422', '18.4275527')"
24.68773,46.72185,Riyadh,Ar Riyad,,SA,"('24.5943245', '46.6340232')"
25.0657,55.17128,Dubai,Dubai,,AE,"('25.2077817', '55.2737537')"
34.43782,73.21937,Baffa,Khyber Pakhtunkhwa,,PK,"('34.549723', '73.3541677')"
25.0657,55.17128,Dubai,Dubai,,AE,"('25.045869', '55.235422')"
25.0657,55.17128,Dubai,Dubai,,AE,"('25.1639938', '55.2096141')"
9.58692,76.52132,Kottayam,Kerala,Kottayam,IN,"('9.5898961', '76.5672357')"
25.0657,55.17128,Dubai,Dubai,,AE,"('25.1132888', '55.1408529')"
36.77262,-4.10045,Velez-Malaga,Andalusia,Provincia de Malaga,ES,"('36.75528', '-4.0987945')"
36.09719,-115.14666,Paradise,Nevada,Clark County,US,"('36.1093605', '-115.1512765')"
25.33737,55.41206,Sharjah,Ash Shariqah,,AE,"('25.2217052', '55.3314269')"
25.0657,55.17128,Dubai,Dubai,,AE,"('25.1895932', '55.2445455')"
48.20849,16.37208,Vienna,Vienna,Wien Stadt,AT,"('48.1915308', '16.380914')"
24.19167,55.76056,Al Ain,Abu Dhabi,,AE,"('24.1772399', '55.7675698')"
32.02581,35.86458,Al Jubayhah,Amman,,JO,"('32.0272791', '35.857536')"
27.91582,34.32995,Sharm el-Sheikh,South Sinai,,EG,"('28.0486475', '34.4377647')"
48.62423,9.82736,Geislingen an der Steige,Baden-Wuerttemberg,Regierungsbezirk Stuttgart,DE,"('48.6179663', '9.8358513')"
19.30157,72.85107,Bhayandar,Maharashtra,Thane,IN,"('19.3015023', '72.8470377')"
42.06642,-87.93729,Mount Prospect,Illinois,Cook County,US,"('42.0665305', '-87.9198143')"
54.77662,11.50017,Maribo,Zealand,Lolland Kommune,DK,"('54.7751776', '11.4968739')"
25.0657,55.17128,Dubai,Dubai,,AE,"('25.1868294', '55.260884')"
25.0657,55.17128,Dubai,Dubai,,AE,"('25.1125131', '55.2292133')"
2.93527,101.69112,Putrajaya,Putrajaya,,MY,"('2.9696699', '101.7134097')"
40.6262,-4.23154,Peguerinos,Castille and Leon,Provincia de Avila,ES,"('40.7132484', '-4.1882815')"
11.24802,75.7804,Kozhikode,Kerala,Kozhikode,IN,"('11.2585172', '75.7850963')"
41.85003,-87.65005,Chicago,Illinois,Cook County,US,"('41.891477', '-87.6308169')"
14.2726,121.1262,Cabuyao,Calabarzon,Province of Laguna,PH,"('14.2485326', '121.1320379')"
25.41111,55.43504,Ajman,Ajman,,AE,"('25.392276', '55.4595134')"
51.21006,16.1619,Legnica,Lower Silesian Voivodeship,Legnica,PL,"('51.1398592', '16.1254297')"
24.3643,56.74681,Al Sohar,Al Batinah,,OM,"('24.312221', '56.5341321')"
29.34722,47.96167,Ash Shamiyah,Al Asimah,,KW,"('29.3254813', '47.9436077')"
34.12111,35.64806,Jbail,Mont-Liban,,LB,"('34.1216915', '35.6468133')"
44.8833,-93.283,Richfield,Minnesota,Hennepin County,US,"('44.8547397', '-93.2420255')"
25.0657,55.17128,Dubai,Dubai,,AE,"('24.9683889', '55.0778889')"
25.0657,55.17128,Dubai,Dubai,,AE,"('25.1961213', '55.2780817')"
28.68964,77.13126,Pitampura,NCT,North West Delhi,IN,"('28.7022409', '77.1029681')"
10.2,76.4,Angamali,Kerala,Ernakulam,IN,"('10.1835456', '76.3781487')"
26.27944,50.20833,Khobar,Eastern Province,,SA,"('26.3630486', '50.1743782')"
11.73333,76.1,Panamaram,Kerala,Wayanad,IN,"('11.6635632', '76.3343888')"
25.0657,55.17128,Dubai,Dubai,,AE,"('25.073322', '55.129714')"
25.0657,55.17128,Dubai,Dubai,,AE,"('25.1093763', '55.2176178')"
44.43225,26.10626,Bucharest,Bucuresti,Municipiul Bucuresti,RO,"('44.4157278', '26.1131516')"
24.46667,54.36667,Abu Dhabi,Abu Dhabi,,AE,"('24.4699413', '54.6055067')"
48.82345,2.29025,Vanves,Ile-de-France,Departement des Hauts-de-Seine,FR,"('48.8556475', '2.2986304')"
48.13743,11.57549,Munich,Bavaria,Upper Bavaria,DE,"('48.147436', '11.576406')"
37.5986,127.1394,Guri-si,Gyeonggi-do,,KR,"('37.524121', '127.1287884')"
21.54238,39.19797,Jeddah,Makkah,,SA,"('21.6707881', '39.1505395')"
50.80743,-1.89975,Ferndown,England,Dorset,GB,"('50.7817108', '-1.8789133')"
24.80361,120.96861,Hsinchu,Taiwan,Hsinchu,TW,"('24.802482', '120.9623624')"
51.51116,-0.18426,Bayswater,England,Greater London,GB,"('51.5136284', '-0.1795411')"
25.33737,55.41206,Sharjah,Ash Shariqah,,AE,"('25.2782196', '55.3473203')"
35.83266,50.99155,Karaj,Alborz,,IR,"('36.028343', '51.1677705')"
25.33737,55.41206,Sharjah,Ash Shariqah,,AE,"('25.2739253', '55.3122735')"
24.68773,46.72185,Riyadh,Ar Riyad,,SA,"('24.7143178', '46.6739704')"
44.04861,43.05944,Pyatigorsk,Stavropol'skiy,,RU,"('44.0412485', '43.0705379')"
24.46667,54.36667,Abu Dhabi,Abu Dhabi,,AE,"('24.4918034', '54.3820412')"
25.0657,55.17128,Dubai,Dubai,,AE,"('25.0821599', '55.1384878')"
19.07283,72.88261,Mumbai,Maharashtra,Mumbai Suburban,IN,"('19.052191', '72.8256069')"
31.54972,74.34361,Lahore,Punjab,,PK,"('31.5243146', '74.3454946')"
26.91962,75.78781,Jaipur,Rajasthan,Jaipur,IN,"('26.8425131', '75.7941252')"
7.88489,98.38557,Ban Talat Nua,Phuket,,TH,"('7.8838119', '98.3884762')"
23.74639,120.7525,Lugu,Taiwan,,TW,"('23.8174495', '120.8535586')"
45.46427,9.18951,Milano,Lombardy,Citta metropolitana di Milano,IT,"('45.4887406', '9.1934817')"
52.37917,5.78611,Nunspeet,Gelderland,Gemeente Nunspeet,NL,"('52.440544', '5.77096')"
50.25841,19.02754,Katowice,Silesian Voivodeship,Katowice,PL,"('50.263507', '19.03489')"
25.33737,55.41206,Sharjah,Ash Shariqah,,AE,"('25.241356', '55.269841')"
25.0657,55.17128,Dubai,Dubai,,AE,"('25.0781911', '55.1346326')"
25.0657,55.17128,Dubai,Dubai,,AE,"('25.0731984', '55.4010604')"
25.0657,55.17128,Dubai,Dubai,,AE,"('25.2153807', '55.2512731')"
-23.46278,-46.53333,Guarulhos,Sao Paulo,Guarulhos,BR,"('-23.5386673', '-46.53103')"
32.44583,74.11594,Wazirabad,Punjab,,PK,"('32.4327887', '74.1150593')"
38.71667,-9.13333,Lisbon,Lisbon,Lisbon,PT,"('38.7332808', '-9.1537783')"
37.54097,15.09645,Canalicchio,Sicily,Catania,IT,"('37.5137255', '15.0929932')"
